{
  "stations": [
    {
      "id": "1",
      "name": "CE-710 Molino del Rey - Glorieta de la Lealtad",
      "lat": 19.416795,
      "lon": -99.192508,
      "capacity": 39
    },
    {
      "id": "5",
      "name": "CE-407  Prolongación Xochicalco-General Emiliano Zapata",
      "lat": 19.36726591257277,
      "lon": -99.15865559132271,
      "capacity": 19
    },
    {
      "id": "6",
      "name": "CE-428  Prolongación Uxmal-Av. Popocatépetl (Eje 8)",
      "lat": 19.363404,
      "lon": -99.160395,
      "capacity": 27
    },
    {
      "id": "7",
      "name": "CE-427 Avenida México-Coyoacán-Av. Popocatépetl (Eje 8)",
      "lat": 19.364905637923787,
      "lon": -99.1629866883295,
      "capacity": 19
    },
    {
      "id": "8",
      "name": "CE-443 Bruno Traven-Golondrinas",
      "lat": 19.359583,
      "lon": -99.162085,
      "capacity": 31
    },
    {
      "id": "9",
      "name": "CE-423 Moras-José María Rico (Eje 8)",
      "lat": 19.367816,
      "lon": -99.175269,
      "capacity": 23
    },
    {
      "id": "10",
      "name": "CE-438 Adolfo Prieto-José María Olloqui",
      "lat": 19.36473,
      "lon": -99.174447,
      "capacity": 23
    },
    {
      "id": "11",
      "name": "CE-415 San Francisco-Parroquia",
      "lat": 19.37099,
      "lon": -99.176135,
      "capacity": 27
    },
    {
      "id": "12",
      "name": "CE-417 Goya-Augusto Rodin",
      "lat": 19.373447,
      "lon": -99.184465,
      "capacity": 27
    },
    {
      "id": "14",
      "name": "CE-022 Reforma - Manchester",
      "lat": 19.424784,
      "lon": -99.172119,
      "capacity": 35
    },
    {
      "id": "15",
      "name": "CE-094 Lic. Verdad-Moneda",
      "lat": 19.433766,
      "lon": -99.130918,
      "capacity": 23
    },
    {
      "id": "16",
      "name": "CE-405 División Del Norte-Municipio Libre",
      "lat": 19.370565558464016,
      "lon": -99.15662247688942,
      "capacity": 27
    },
    {
      "id": "17",
      "name": "CE-375 Tenayuca-División Del Norte",
      "lat": 19.376793,
      "lon": -99.158847,
      "capacity": 23
    },
    {
      "id": "18",
      "name": "CE-394 Dr. Roberto Gayol-Félix Cuevas",
      "lat": 19.372474,
      "lon": -99.171639,
      "capacity": 35
    },
    {
      "id": "19",
      "name": "CE-337 San Borja-Martín Mendalde",
      "lat": 19.384849,
      "lon": -99.16704,
      "capacity": 19
    },
    {
      "id": "20",
      "name": "CE-412 Parroquia-Avenida Universidad",
      "lat": 19.368107,
      "lon": -99.164376,
      "capacity": 34
    },
    {
      "id": "21",
      "name": "CE-381 San Lorenzo-Manzanas",
      "lat": 19.375543381100602,
      "lon": -99.17801052342838,
      "capacity": 23
    },
    {
      "id": "22",
      "name": "CE-332 Calle 27-Avenida 3",
      "lat": 19.385494,
      "lon": -99.183744,
      "capacity": 23
    },
    {
      "id": "23",
      "name": "CE-399 Heriberto Frías-San Lorenzo",
      "lat": 19.372469,
      "lon": -99.164538,
      "capacity": 35
    },
    {
      "id": "24",
      "name": "CE-377 Heriberto Frías-Miguel Laurent",
      "lat": 19.375397,
      "lon": -99.163778,
      "capacity": 35
    },
    {
      "id": "25",
      "name": "CE-360 Heriberto Frías-Matias Romero",
      "lat": 19.379435,
      "lon": -99.162794,
      "capacity": 23
    },
    {
      "id": "26",
      "name": "CE-362 Augusto Rodin-Alberto Balderas",
      "lat": 19.382123281154726,
      "lon": -99.18109126394484,
      "capacity": 19
    },
    {
      "id": "27",
      "name": "CE-365 Holbein-Avenida Revolución",
      "lat": 19.381123,
      "lon": -99.18667,
      "capacity": 21
    },
    {
      "id": "28",
      "name": "CE-424 Amores-José María Rico (Eje 8)",
      "lat": 19.367103332434564,
      "lon": -99.17058136315518,
      "capacity": 11
    },
    {
      "id": "29",
      "name": "CE-421 María Luz Bringas-Oso",
      "lat": 19.36952,
      "lon": -99.179421,
      "capacity": 31
    },
    {
      "id": "30",
      "name": "CE-287 13 de Septiembre-Puente de la Morena",
      "lat": 19.398946,
      "lon": -99.183254,
      "capacity": 19
    },
    {
      "id": "31",
      "name": "CE-288 11 de Abril-Avenida 2",
      "lat": 19.396339843986805,
      "lon": -99.1835709661791,
      "capacity": 15
    },
    {
      "id": "32",
      "name": "CE-372 Dr. Roberto Gayol-Tlacoquemécatl",
      "lat": 19.377966,
      "lon": -99.170272,
      "capacity": 19
    },
    {
      "id": "33",
      "name": "CE-434 Jose María Olloqui-Amores",
      "lat": 19.363698614576656,
      "lon": -99.17118497195588,
      "capacity": 27
    },
    {
      "id": "34",
      "name": "CE-439 Amores-Avenida Coyoacán",
      "lat": 19.362037,
      "lon": -99.172683,
      "capacity": 19
    },
    {
      "id": "35",
      "name": "CE-378 Miguel Laurent-Amores",
      "lat": 19.375865,
      "lon": -99.168219,
      "capacity": 31
    },
    {
      "id": "36",
      "name": "CE-437 Moras-Comunal",
      "lat": 19.364916,
      "lon": -99.175985,
      "capacity": 19
    },
    {
      "id": "37",
      "name": "CE-374 Pitágoras-Pilares",
      "lat": 19.376959,
      "lon": -99.161099,
      "capacity": 31
    },
    {
      "id": "38",
      "name": "CE-384 Empresa-Poussin",
      "lat": 19.375865,
      "lon": -99.185573,
      "capacity": 23
    },
    {
      "id": "39",
      "name": "CE-348 Indiana-Avenida San Antonio",
      "lat": 19.3854574,
      "lon": -99.1782718,
      "capacity": 19
    },
    {
      "id": "40",
      "name": "CE-397 San Lorenzo-Gabriel Mancera",
      "lat": 19.37313576931919,
      "lon": -99.16706666355822,
      "capacity": 31
    },
    {
      "id": "41",
      "name": "CE-353 Carolina-Holbein",
      "lat": 19.3823345657493,
      "lon": -99.17888358246273,
      "capacity": 23
    },
    {
      "id": "42",
      "name": "CE-387 Cadiz-Empresa",
      "lat": 19.374267,
      "lon": -99.180546,
      "capacity": 19
    },
    {
      "id": "43",
      "name": "CE-367 Boston -Augusto Rodin",
      "lat": 19.379593,
      "lon": -99.181351,
      "capacity": 19
    },
    {
      "id": "44",
      "name": "CE-390-391 Oso-Félix Cuevas",
      "lat": 19.373161,
      "lon": -99.178243,
      "capacity": 47
    },
    {
      "id": "45",
      "name": "CE-303 Montecito-Av. Insurgentes",
      "lat": 19.394861698080163,
      "lon": -99.17300574486944,
      "capacity": 26
    },
    {
      "id": "46",
      "name": "CE-370 Tlacoquemécatl-Av. Insurgentes",
      "lat": 19.378799,
      "lon": -99.176821,
      "capacity": 31
    },
    {
      "id": "47",
      "name": "CE-354 Boston-Av. Insurgentes",
      "lat": 19.381714,
      "lon": -99.176664,
      "capacity": 23
    },
    {
      "id": "48",
      "name": "CE-333 Georgia-Carolina",
      "lat": 19.387624,
      "lon": -99.180978,
      "capacity": 23
    },
    {
      "id": "49",
      "name": "CE-445-446 Riff-Avenida Río Churubusco",
      "lat": 19.35857050753971,
      "lon": -99.15610156956063,
      "capacity": 59
    },
    {
      "id": "50",
      "name": "CE-429 Pirineos-Av. Popocatépetl (Eje 8)",
      "lat": 19.363060918104924,
      "lon": -99.15833439679318,
      "capacity": 19
    },
    {
      "id": "51",
      "name": "CE-414 Parroquia-José Ignacio Bartolache",
      "lat": 19.370213835587535,
      "lon": -99.17385498530166,
      "capacity": 27
    },
    {
      "id": "52",
      "name": "CE-432 Carrillo Puerto-Avenida México-Coyoacan",
      "lat": 19.361245,
      "lon": -99.16239,
      "capacity": 35
    },
    {
      "id": "53",
      "name": "CE-358 Nicolás San Juan-Matias Romero",
      "lat": 19.380087,
      "lon": -99.16427,
      "capacity": 23
    },
    {
      "id": "55",
      "name": "CE-409 Azores - División Del Norte",
      "lat": 19.3650233,
      "lon": -99.1554899,
      "capacity": 23
    },
    {
      "id": "56",
      "name": "CE-413 Parroquia-Avenida Coyoacán",
      "lat": 19.369823,
      "lon": -99.172164,
      "capacity": 35
    },
    {
      "id": "57",
      "name": "CE-345 Patricio Sanz - Miraflores",
      "lat": 19.384447,
      "lon": -99.172039,
      "capacity": 23
    },
    {
      "id": "58",
      "name": "CE-419 Actipan-Cadiz",
      "lat": 19.370615,
      "lon": -99.181606,
      "capacity": 30
    },
    {
      "id": "59",
      "name": "CE-307 Minnesota-Dakota",
      "lat": 19.393711808925048,
      "lon": -99.17581468826029,
      "capacity": 27
    },
    {
      "id": "60",
      "name": "CE-361 Porfirio Díaz-Capulín",
      "lat": 19.380691,
      "lon": -99.175036,
      "capacity": 27
    },
    {
      "id": "61",
      "name": "CE-393 Adolfo Prieto-Félix Cuevas",
      "lat": 19.373307,
      "lon": -99.172471,
      "capacity": 35
    },
    {
      "id": "62",
      "name": "CE-306 Dakota-Minnesota",
      "lat": 19.393699,
      "lon": -99.175664,
      "capacity": 35
    },
    {
      "id": "63",
      "name": "CE-349 Augusto Rodin-Avenida San Antonio",
      "lat": 19.385632,
      "lon": -99.180848,
      "capacity": 19
    },
    {
      "id": "64",
      "name": "CE-284 Dakota-Vermont",
      "lat": 19.397693,
      "lon": -99.172981,
      "capacity": 31
    },
    {
      "id": "65",
      "name": "CE-308 Nueva York-Arizona",
      "lat": 19.393643,
      "lon": -99.178156,
      "capacity": 31
    },
    {
      "id": "66",
      "name": "CE-312 Avenida 2-Calle 7",
      "lat": 19.39270929935713,
      "lon": -99.18373167525715,
      "capacity": 27
    },
    {
      "id": "67",
      "name": "CE-325 Providencia -Avenida Del Valle",
      "lat": 19.38817793281278,
      "lon": -99.16966706519814,
      "capacity": 23
    },
    {
      "id": "68",
      "name": "CE-327 Georgia -Pensilvania",
      "lat": 19.38885,
      "lon": -99.17772,
      "capacity": 23
    },
    {
      "id": "69",
      "name": "CE-335 Magdalena-Ameyalco",
      "lat": 19.386989,
      "lon": -99.173438,
      "capacity": 35
    },
    {
      "id": "70",
      "name": "CE-324 Amores-Avenida Eugenia",
      "lat": 19.387483,
      "lon": -99.165409,
      "capacity": 19
    },
    {
      "id": "71",
      "name": "CE-059 Popocatépetl - Ámsterdam",
      "lat": 19.4152434,
      "lon": -99.1667561,
      "capacity": 35
    },
    {
      "id": "72",
      "name": "CE-072 Mazatlán - Alfonso Reyes",
      "lat": 19.409859,
      "lon": -99.179565,
      "capacity": 31
    },
    {
      "id": "73",
      "name": "CE-067 Vicente Suárez - Michoacán",
      "lat": 19.411813726946605,
      "lon": -99.17595729242748,
      "capacity": 23
    },
    {
      "id": "74",
      "name": "CE-343 Enrique Rébsamen-División Del Norte",
      "lat": 19.384079,
      "lon": -99.160915,
      "capacity": 15
    },
    {
      "id": "75",
      "name": "CE-330 Calle 15-Avenida Patriotismo",
      "lat": 19.389358,
      "lon": -99.182606,
      "capacity": 19
    },
    {
      "id": "76",
      "name": "CE-315 Alabama-Montana",
      "lat": 19.391444264426035,
      "lon": -99.17368702595921,
      "capacity": 27
    },
    {
      "id": "77",
      "name": "CE-341 San Borja-Avenida Cuauhtémoc",
      "lat": 19.382889,
      "lon": -99.158352,
      "capacity": 31
    },
    {
      "id": "78",
      "name": "CE-300 Providencia -Luz Saviñón",
      "lat": 19.393228574754442,
      "lon": -99.16839435702059,
      "capacity": 23
    },
    {
      "id": "79",
      "name": "CE-074 Nuevo León - Ozulama",
      "lat": 19.410468,
      "lon": -99.172802,
      "capacity": 35
    },
    {
      "id": "80",
      "name": "CE-042 Sinaloa - Valladolid",
      "lat": 19.420603,
      "lon": -99.168239,
      "capacity": 23
    },
    {
      "id": "81",
      "name": "CE-076 Chilpancingo - Campeche",
      "lat": 19.4087182,
      "lon": -99.1699442,
      "capacity": 19
    },
    {
      "id": "82",
      "name": "CE-064 Sonora - Ámsterdam",
      "lat": 19.412967269545486,
      "lon": -99.16692517703268,
      "capacity": 27
    },
    {
      "id": "83",
      "name": "CE-056 Alvaro Obregón - Medellin",
      "lat": 19.417102,
      "lon": -99.165607,
      "capacity": 35
    },
    {
      "id": "84",
      "name": "CE-071 Amsterdam - Michoacan",
      "lat": 19.411361,
      "lon": -99.171271,
      "capacity": 35
    },
    {
      "id": "85",
      "name": "CE-083 Alfonso Reyes - Nuevo León",
      "lat": 19.40655,
      "lon": -99.172275,
      "capacity": 15
    },
    {
      "id": "86",
      "name": "CE-081 Aguascalientes - Insurgentes",
      "lat": 19.407927,
      "lon": -99.168734,
      "capacity": 27
    },
    {
      "id": "87",
      "name": "CE-079 Saltillo - Alfonso Reyes",
      "lat": 19.407548521979454,
      "lon": -99.17434785516434,
      "capacity": 31
    },
    {
      "id": "88",
      "name": "CE-128 Orizaba-Río de Janeiro",
      "lat": 19.422148,
      "lon": -99.160645,
      "capacity": 23
    },
    {
      "id": "89",
      "name": "CE-049 Mazatlán - Juan de la Barrera",
      "lat": 19.41689,
      "lon": -99.17562,
      "capacity": 39
    },
    {
      "id": "90",
      "name": "CE-066 Mazatlán - Francisco Márquez",
      "lat": 19.411825,
      "lon": -99.178456,
      "capacity": 27
    },
    {
      "id": "91",
      "name": "CE-040 Oaxaca - Puebla",
      "lat": 19.42235098990008,
      "lon": -99.16417356581859,
      "capacity": 23
    },
    {
      "id": "92",
      "name": "CE-053 Fernando Montes de Oca - Tula",
      "lat": 19.4148233,
      "lon": -99.1783527,
      "capacity": 15
    },
    {
      "id": "93",
      "name": "CE-046 Durango - Salamanca",
      "lat": 19.419178,
      "lon": -99.169949,
      "capacity": 39
    },
    {
      "id": "94",
      "name": "CE-447 Agustín Melgar-Zamora",
      "lat": 19.418879,
      "lon": -99.176854,
      "capacity": 27
    },
    {
      "id": "95",
      "name": "CE-060 Mazatlán - Fernando Montes de Oca",
      "lat": 19.414099314684794,
      "lon": -99.17715847497675,
      "capacity": 39
    },
    {
      "id": "96",
      "name": "CE-302 Luz Saviñón-Magdalena",
      "lat": 19.393914210245562,
      "lon": -99.1716746986458,
      "capacity": 39
    },
    {
      "id": "97",
      "name": "CE-070 Parque México - Michoacán",
      "lat": 19.4113523,
      "lon": -99.1698939,
      "capacity": 45
    },
    {
      "id": "98",
      "name": "CE-125 Morelia-Circular de Morelia",
      "lat": 19.424197,
      "lon": -99.156127,
      "capacity": 35
    },
    {
      "id": "99",
      "name": "CE-100 20 de Noviembre-Mesones",
      "lat": 19.428485,
      "lon": -99.1338,
      "capacity": 23
    },
    {
      "id": "100",
      "name": "CE-105 San Jerónimo-5 de Febrero",
      "lat": 19.426755,
      "lon": -99.135014,
      "capacity": 23
    },
    {
      "id": "101",
      "name": "CE-102 Echeveste-Bolivar",
      "lat": 19.428214,
      "lon": -99.139494,
      "capacity": 15
    },
    {
      "id": "102",
      "name": "CE-097 República de Salvador-Pino Suárez",
      "lat": 19.429189,
      "lon": -99.132759,
      "capacity": 27
    },
    {
      "id": "103",
      "name": "CE-099 Ernesto Pugibet-Luis Moya",
      "lat": 19.429947,
      "lon": -99.14591,
      "capacity": 27
    },
    {
      "id": "104",
      "name": "CE-107-108 Tolsa-Balderas",
      "lat": 19.427305,
      "lon": -99.149533,
      "capacity": 59
    },
    {
      "id": "105",
      "name": "CE-122 José María Vértiz-Av. Dr. Río de la Loza",
      "lat": 19.425502,
      "lon": -99.146337,
      "capacity": 31
    },
    {
      "id": "106",
      "name": "CE-029 Reforma - Bucareli",
      "lat": 19.434944,
      "lon": -99.150295,
      "capacity": 35
    },
    {
      "id": "107",
      "name": "CE-110 Dr. Valenzuela-Dr. Río de la loza",
      "lat": 19.425126,
      "lon": -99.143391,
      "capacity": 35
    },
    {
      "id": "108",
      "name": "CE-093 Palma Norte-República de Cuba",
      "lat": 19.436741,
      "lon": -99.134811,
      "capacity": 35
    },
    {
      "id": "109",
      "name": "CE-091 Republica de Cuba-Allende",
      "lat": 19.4374,
      "lon": -99.137571,
      "capacity": 19
    },
    {
      "id": "110",
      "name": "CE-112 Av. Morelos-Abraham González",
      "lat": 19.432819,
      "lon": -99.151734,
      "capacity": 23
    },
    {
      "id": "111",
      "name": "CE-065 Marconi - Tacuba",
      "lat": 19.436522,
      "lon": -99.139811,
      "capacity": 19
    },
    {
      "id": "112",
      "name": "CE-088 2a Cerrada de 5 de Mayo - Palma",
      "lat": 19.433757,
      "lon": -99.135331,
      "capacity": 15
    },
    {
      "id": "113",
      "name": "CE-003 Reforma - Insurgentes",
      "lat": 19.43163,
      "lon": -99.158547,
      "capacity": 31
    },
    {
      "id": "114",
      "name": "CE-109 Nezahualcóyotl-Isabel la Católica",
      "lat": 19.425311,
      "lon": -99.137421,
      "capacity": 31
    },
    {
      "id": "115",
      "name": "CE-113 General Prim-Versalles",
      "lat": 19.430369,
      "lon": -99.154419,
      "capacity": 15
    },
    {
      "id": "116",
      "name": "CE-123 Claudio Bernard-Dr. Lavista",
      "lat": 19.424161,
      "lon": -99.153117,
      "capacity": 27
    },
    {
      "id": "117",
      "name": "CE-259 Tómas Alva Edison-Ponciano Arriaga",
      "lat": 19.437569,
      "lon": -99.15468,
      "capacity": 27
    },
    {
      "id": "118",
      "name": "CE-260 Av. Juárez-Balderas",
      "lat": 19.43531137040153,
      "lon": -99.14778560405466,
      "capacity": 21
    },
    {
      "id": "119",
      "name": "CE-016 Reforma - Río Tiber",
      "lat": 19.4267528,
      "lon": -99.16861944,
      "capacity": 31
    },
    {
      "id": "120",
      "name": "CE-025 Reforma - Estocolmo",
      "lat": 19.427338,
      "lon": -99.16672,
      "capacity": 27
    },
    {
      "id": "121",
      "name": "CE-116 Londres-Roma",
      "lat": 19.428985,
      "lon": -99.15664,
      "capacity": 23
    },
    {
      "id": "122",
      "name": "CE-019 Reforma - Río Rhin",
      "lat": 19.429453,
      "lon": -99.16283,
      "capacity": 31
    },
    {
      "id": "123",
      "name": "CE-005 Río Pánuco Río Tiber",
      "lat": 19.4298428,
      "lon": -99.1693702,
      "capacity": 23
    },
    {
      "id": "124",
      "name": "CE-261 Paseo de la Reforma-Río de la Plata",
      "lat": 19.42491,
      "lon": -99.172455,
      "capacity": 43
    },
    {
      "id": "125",
      "name": "CE-263 Sadi Carnot - Gómez Farias",
      "lat": 19.436274,
      "lon": -99.158425,
      "capacity": 29
    },
    {
      "id": "126",
      "name": "CE-111 Guillermo Prieto - Joaquín Velázquez de León",
      "lat": 19.438197,
      "lon": -99.165918,
      "capacity": 27
    },
    {
      "id": "127",
      "name": "CE-265 Mina - Jesús García",
      "lat": 19.440839,
      "lon": -99.152265,
      "capacity": 33
    },
    {
      "id": "128",
      "name": "CE-264-275 Héroes Ferrocarrileros - Jesús Garcia",
      "lat": 19.440985,
      "lon": -99.152935,
      "capacity": 71
    },
    {
      "id": "129",
      "name": "CE-255 José Rosas Moreno-Guillermo Prieto",
      "lat": 19.437118,
      "lon": -99.161862,
      "capacity": 35
    },
    {
      "id": "130",
      "name": "CE-268-269 Luis Donaldo Colosio - Av. Jesús García",
      "lat": 19.442467,
      "lon": -99.151658,
      "capacity": 69
    },
    {
      "id": "131",
      "name": "CE-007 Río Elba - Río Lerma",
      "lat": 19.42528,
      "lon": -99.175106,
      "capacity": 23
    },
    {
      "id": "132",
      "name": "CE-254 Alfonso Herrera-Miguel Shultz",
      "lat": 19.439177,
      "lon": -99.159957,
      "capacity": 31
    },
    {
      "id": "133",
      "name": "CE-115 Roma-Dinamarca",
      "lat": 19.429924814772583,
      "lon": -99.15965178055556,
      "capacity": 27
    },
    {
      "id": "134",
      "name": "CE-273-274 Luis Donaldo Colosio - Av. Jesús García",
      "lat": 19.442707,
      "lon": -99.152956,
      "capacity": 70
    },
    {
      "id": "135",
      "name": "CE-035 Liverpool - Génova",
      "lat": 19.424558,
      "lon": -99.163518,
      "capacity": 41
    },
    {
      "id": "136",
      "name": "CE-012 Río Lerma - Villalongín",
      "lat": 19.432223,
      "lon": -99.161686,
      "capacity": 15
    },
    {
      "id": "137",
      "name": "CE-006 Río Pánuco - Río Sena",
      "lat": 19.430963,
      "lon": -99.166986,
      "capacity": 15
    },
    {
      "id": "138",
      "name": "CE-132 Colima-Frontera",
      "lat": 19.420667,
      "lon": -99.15645,
      "capacity": 23
    },
    {
      "id": "139",
      "name": "CE-144 Frontera-San Luis Potosí",
      "lat": 19.415192,
      "lon": -99.154837,
      "capacity": 27
    },
    {
      "id": "140",
      "name": "CE-147 Coahuila-Orizaba",
      "lat": 19.412182,
      "lon": -99.158443,
      "capacity": 27
    },
    {
      "id": "141",
      "name": "CE-271-272 Jesús García - Carlos J. Meneses",
      "lat": 19.443684,
      "lon": -99.152465,
      "capacity": 74
    },
    {
      "id": "142",
      "name": "CE-002 Río Guadalquivir - Río Nazas",
      "lat": 19.430495377066244,
      "lon": -99.17115971451493,
      "capacity": 23
    },
    {
      "id": "143",
      "name": "CE-137 Álvaro Obregón-Mérida",
      "lat": 19.418782,
      "lon": -99.157081,
      "capacity": 27
    },
    {
      "id": "144",
      "name": "CE-139 Tonalá-Guanajuato",
      "lat": 19.416128,
      "lon": -99.162097,
      "capacity": 23
    },
    {
      "id": "145",
      "name": "CE-190 Gobernador Ignacio Esteva-Maestro José Vasconcelos",
      "lat": 19.409577,
      "lon": -99.183818,
      "capacity": 31
    },
    {
      "id": "146",
      "name": "CE-185 General Antonio Léon-General Pedro Antonio de los Santos",
      "lat": 19.412776,
      "lon": -99.182805,
      "capacity": 29
    },
    {
      "id": "147",
      "name": "CE-228 Campos Elíseos-La Fontaine",
      "lat": 19.427705,
      "lon": -99.19912,
      "capacity": 19
    },
    {
      "id": "148",
      "name": "CE-220 Plinio-Presidente Masaryk",
      "lat": 19.432655,
      "lon": -99.205727,
      "capacity": 27
    },
    {
      "id": "149",
      "name": "CE-204 Temístocles-Homero",
      "lat": 19.435882,
      "lon": -99.19152,
      "capacity": 27
    },
    {
      "id": "150",
      "name": "CE-199 Anatole France-Av. Ejército Nacional",
      "lat": 19.437934,
      "lon": -99.197241,
      "capacity": 23
    },
    {
      "id": "151",
      "name": "CE-247 Herschel-Rousseau",
      "lat": 19.432276,
      "lon": -99.18064,
      "capacity": 27
    },
    {
      "id": "152",
      "name": "CE-158-159 Huatabampo-Eje 1 Pte. Av. Cuauhtémoc",
      "lat": 19.407517,
      "lon": -99.155373,
      "capacity": 74
    },
    {
      "id": "153",
      "name": "CE-207 Torquato Tasso-Homero",
      "lat": 19.434861,
      "lon": -99.183322,
      "capacity": 23
    },
    {
      "id": "154",
      "name": "CE-222 Alejandro Dumas-Presidente Masarik",
      "lat": 19.431417,
      "lon": -99.195774,
      "capacity": 27
    },
    {
      "id": "155",
      "name": "CE-216 Alejandro Dumas-Horacio",
      "lat": 19.433419,
      "lon": -99.195746,
      "capacity": 27
    },
    {
      "id": "156",
      "name": "CE-212 Hegel-Horacio",
      "lat": 19.433863944714325,
      "lon": -99.18809428821986,
      "capacity": 35
    },
    {
      "id": "157",
      "name": "CE-140 Mérida-Zacatecas",
      "lat": 19.416596,
      "lon": -99.156879,
      "capacity": 19
    },
    {
      "id": "158",
      "name": "CE-229 Carlos Dickens-Séneca",
      "lat": 19.430515,
      "lon": -99.203331,
      "capacity": 23
    },
    {
      "id": "159",
      "name": "CE-231 Isaac Newton-Aristóteles",
      "lat": 19.429711892530808,
      "lon": -99.19357940565533,
      "capacity": 27
    },
    {
      "id": "160",
      "name": "CE-460 Juan Vázquez De Mella-Homero",
      "lat": 19.43716476942747,
      "lon": -99.20793056498951,
      "capacity": 35
    },
    {
      "id": "161",
      "name": "CE-214 Platón-Horacio",
      "lat": 19.434353,
      "lon": -99.20322,
      "capacity": 27
    },
    {
      "id": "162",
      "name": "CE-218 Hegel-Ibarbourou",
      "lat": 19.432451,
      "lon": -99.188033,
      "capacity": 23
    },
    {
      "id": "163",
      "name": "CE-243 Lago Filt-Miguel de Cervantes Saavedra",
      "lat": 19.441123,
      "lon": -99.195857,
      "capacity": 23
    },
    {
      "id": "164",
      "name": "CE-192-193 Rubén Darío.Reforma",
      "lat": 19.425907,
      "lon": -99.190733,
      "capacity": 49
    },
    {
      "id": "165",
      "name": "CE-464 Mateo Alemán-Prolongación Moliere",
      "lat": 19.442421,
      "lon": -99.199838,
      "capacity": 23
    },
    {
      "id": "166",
      "name": "CE-195 Reforma-Circuito Mahatma Gandhi",
      "lat": 19.424858,
      "lon": -99.185181,
      "capacity": 31
    },
    {
      "id": "167",
      "name": "CE-120 Marsella-Nápoles",
      "lat": 19.425437,
      "lon": -99.159458,
      "capacity": 15
    },
    {
      "id": "168",
      "name": "CE-143 Córdoba-San Luis Potosí",
      "lat": 19.414303,
      "lon": -99.157542,
      "capacity": 23
    },
    {
      "id": "169",
      "name": "CE-150 Campeche-Medellín",
      "lat": 19.4098481,
      "lon": -99.164553,
      "capacity": 31
    },
    {
      "id": "170",
      "name": "CE-161 Quintana Roo-Manzanillo",
      "lat": 19.405533,
      "lon": -99.164913,
      "capacity": 23
    },
    {
      "id": "171",
      "name": "CE-031 Hamburgo - Insurgentes",
      "lat": 19.427922277979096,
      "lon": -99.16124593467885,
      "capacity": 37
    },
    {
      "id": "172",
      "name": "CE-280 Anaxágoras-Obrero Mundial",
      "lat": 19.4015,
      "lon": -99.156406,
      "capacity": 39
    },
    {
      "id": "173",
      "name": "CE-032 Londres - Sevilla",
      "lat": 19.42268552552878,
      "lon": -99.16998323054486,
      "capacity": 35
    },
    {
      "id": "174",
      "name": "CE-118 Liverpool-Dinamarca",
      "lat": 19.427171,
      "lon": -99.158108,
      "capacity": 19
    },
    {
      "id": "175",
      "name": "CE-134 Álvaro Obregón-Orizaba",
      "lat": 19.418286,
      "lon": -99.159932,
      "capacity": 31
    },
    {
      "id": "176",
      "name": "CE-033 Londres - Florencia",
      "lat": 19.424187,
      "lon": -99.166497,
      "capacity": 17
    },
    {
      "id": "177",
      "name": "CE-165 Bajío-Eje 2 Pte. Monterrey",
      "lat": 19.404268,
      "lon": -99.160503,
      "capacity": 23
    },
    {
      "id": "178",
      "name": "CE-179 Nuevo León-Quintana Roo",
      "lat": 19.404435569698265,
      "lon": -99.17138099675866,
      "capacity": 27
    },
    {
      "id": "179",
      "name": "CE-293 Mier y Pesado-Eje 4 Sur Xola",
      "lat": 19.397373,
      "lon": -99.164598,
      "capacity": 31
    },
    {
      "id": "180",
      "name": "CE-037 Guadalajara - Puebla",
      "lat": 19.4204342,
      "lon": -99.1725775,
      "capacity": 35
    },
    {
      "id": "181",
      "name": "CE-156 Tepic-Ario",
      "lat": 19.406959,
      "lon": -99.163021,
      "capacity": 19
    },
    {
      "id": "182",
      "name": "CE-285 12 de Octubre-Minería",
      "lat": 19.399763,
      "lon": -99.177538,
      "capacity": 19
    },
    {
      "id": "183",
      "name": "CE-131 Colima-Jalapa",
      "lat": 19.419579,
      "lon": -99.161314,
      "capacity": 19
    },
    {
      "id": "184",
      "name": "CE-030 Hamburgo - Amberes",
      "lat": 19.426099760030304,
      "lon": -99.16493654251099,
      "capacity": 36
    },
    {
      "id": "185",
      "name": "CE-057 Cuernavaca - Juan Escutia",
      "lat": 19.414968,
      "lon": -99.174766,
      "capacity": 11
    },
    {
      "id": "186",
      "name": "CE-058 Parque España - Juan de la Barrera",
      "lat": 19.415358,
      "lon": -99.171902,
      "capacity": 27
    },
    {
      "id": "187",
      "name": "CE-175 Mutualismo-José Martí",
      "lat": 19.400599004903363,
      "lon": -99.17245991533491,
      "capacity": 23
    },
    {
      "id": "188",
      "name": "CE-148 Coahuila-Av. Cuauhtémoc",
      "lat": 19.412829,
      "lon": -99.155116,
      "capacity": 21
    },
    {
      "id": "189",
      "name": "CE-177 Benjamín Hill - Carlos Zetina",
      "lat": 19.408841,
      "lon": -99.181692,
      "capacity": 19
    },
    {
      "id": "190",
      "name": "CE-166 Progreso-Cda. Antonio Maceo",
      "lat": 19.406069,
      "lon": -99.183549,
      "capacity": 23
    },
    {
      "id": "191",
      "name": "CE-241 Ejército Nacional-Juan Vázquez de la Mella",
      "lat": 19.43869310388943,
      "lon": -99.20757338410112,
      "capacity": 19
    },
    {
      "id": "192",
      "name": "CE-173 Minería-José Martí",
      "lat": 19.401682,
      "lon": -99.176398,
      "capacity": 23
    },
    {
      "id": "193",
      "name": "CE-126 Jalapa-Puebla",
      "lat": 19.422288,
      "lon": -99.162138,
      "capacity": 34
    },
    {
      "id": "194",
      "name": "CE-127 Puebla-Merida",
      "lat": 19.423318,
      "lon": -99.15833,
      "capacity": 27
    },
    {
      "id": "195",
      "name": "CE-180 Quintana Roo-Villahermosa",
      "lat": 19.404554,
      "lon": -99.169953,
      "capacity": 27
    },
    {
      "id": "196",
      "name": "CE-467 Lago Mayor-Lago Alberto",
      "lat": 19.440399,
      "lon": -99.186784,
      "capacity": 27
    },
    {
      "id": "197",
      "name": "CE-167 General Salvador Alvarado-Progreso",
      "lat": 19.404608864422567,
      "lon": -99.1794095188925,
      "capacity": 23
    },
    {
      "id": "198",
      "name": "CE-196 Lago Tanganica- Av. Ejército Nacional",
      "lat": 19.438349,
      "lon": -99.192904,
      "capacity": 27
    },
    {
      "id": "199",
      "name": "CE-152 Tlacotalpan-Campeche",
      "lat": 19.409098,
      "lon": -99.167181,
      "capacity": 35
    },
    {
      "id": "200",
      "name": "CE-200 Emerson-Av. Ejército Nacional",
      "lat": 19.437596,
      "lon": -99.188785,
      "capacity": 27
    },
    {
      "id": "201",
      "name": "CE-461 Presa Don Martín-Boulevard Miguel De Cervantes Saavedra",
      "lat": 19.440106,
      "lon": -99.210031,
      "capacity": 31
    },
    {
      "id": "202",
      "name": "CE-454 Montes Urales-Monte Pelvoux",
      "lat": 19.425905,
      "lon": -99.204236,
      "capacity": 15
    },
    {
      "id": "203",
      "name": "CE-466 Lago Onega-Lago Ladoga",
      "lat": 19.44269,
      "lon": -99.19083,
      "capacity": 27
    },
    {
      "id": "204",
      "name": "CE-213 Solón-Cicerón",
      "lat": 19.434366028509015,
      "lon": -99.206306487431,
      "capacity": 27
    },
    {
      "id": "205",
      "name": "CE-157 Tepic-Tlacotalpan",
      "lat": 19.406236,
      "lon": -99.166616,
      "capacity": 30
    },
    {
      "id": "206",
      "name": "CE-456 Alpes-Montes Escandinavos",
      "lat": 19.427517,
      "lon": -99.208412,
      "capacity": 27
    },
    {
      "id": "207",
      "name": "CE-459 Volcán-Montes Urales",
      "lat": 19.429323620268587,
      "lon": -99.2071587592636,
      "capacity": 31
    },
    {
      "id": "208",
      "name": "CE-457 Av. Prado Norte-Explanada",
      "lat": 19.42703,
      "lon": -99.212845,
      "capacity": 17
    },
    {
      "id": "209",
      "name": "CE-283 Av. Coyoacán-Rafael Dondé",
      "lat": 19.397923,
      "lon": -99.167248,
      "capacity": 19
    },
    {
      "id": "210",
      "name": "CE-294 Nicolás San Juan-Eje 4 Sur Xola",
      "lat": 19.39644167553825,
      "lon": -99.16090227668974,
      "capacity": 21
    },
    {
      "id": "211",
      "name": "CE-278 Mier Y Pesado-Obrero Mundial",
      "lat": 19.40071,
      "lon": -99.163831,
      "capacity": 19
    },
    {
      "id": "212",
      "name": "CE-282 La Morena-Eje 2 Poniente Gabriel Mancera",
      "lat": 19.398719270170474,
      "lon": -99.16128046816084,
      "capacity": 19
    },
    {
      "id": "213",
      "name": "CE-320 Enrique Rébsamen-Luz Saviñón",
      "lat": 19.391374,
      "lon": -99.159327,
      "capacity": 19
    },
    {
      "id": "214",
      "name": "CE-044 Durango - Veracruz",
      "lat": 19.418781,
      "lon": -99.174413,
      "capacity": 25
    },
    {
      "id": "215",
      "name": "CE-114 Lucerna-Abraham González",
      "lat": 19.428989,
      "lon": -99.153618,
      "capacity": 23
    },
    {
      "id": "216",
      "name": "CE-322 Heriberto Frías-Concepción Beistegui",
      "lat": 19.388456876549792,
      "lon": -99.16064277296753,
      "capacity": 27
    },
    {
      "id": "217",
      "name": "CE-318 Luz Saviñón-Amores",
      "lat": 19.392195,
      "lon": -99.163987,
      "capacity": 23
    },
    {
      "id": "218",
      "name": "CE-009 Río Guadalquivir - Río Lerma",
      "lat": 19.428184,
      "lon": -99.170013,
      "capacity": 19
    },
    {
      "id": "219",
      "name": "CE-234 Tres Picos-Arquímides",
      "lat": 19.42786220267939,
      "lon": -99.1914046928423,
      "capacity": 27
    },
    {
      "id": "220",
      "name": "CE-339 Enrique Rébsamen-Avenida Eugenia",
      "lat": 19.386212,
      "lon": -99.160583,
      "capacity": 23
    },
    {
      "id": "221",
      "name": "CE-188 Gobernador Melchor Múzquiz-Gobernador Ignacio Esteva",
      "lat": 19.411711,
      "lon": -99.190139,
      "capacity": 19
    },
    {
      "id": "222",
      "name": "CE-298 Romero de Terreros-Gabriel Mancera",
      "lat": 19.394092,
      "lon": -99.162139,
      "capacity": 19
    },
    {
      "id": "223",
      "name": "CE-189 Gobernador Rafael Rebollar-Gobernador José Ceballos",
      "lat": 19.410046050731914,
      "lon": -99.18795973067971,
      "capacity": 19
    },
    {
      "id": "224",
      "name": "CE-249 Shakespeare-Darwin",
      "lat": 19.42988388240091,
      "lon": -99.1775936633894,
      "capacity": 15
    },
    {
      "id": "225",
      "name": "CE-043 Revillagigedo - Juárez",
      "lat": 19.4351365,
      "lon": -99.1460756,
      "capacity": 31
    },
    {
      "id": "226",
      "name": "CE-469 Bahía de la Concepción-Bahía de Todos Los Santos",
      "lat": 19.434183,
      "lon": -99.173089,
      "capacity": 27
    },
    {
      "id": "227",
      "name": "CE-472 Bahía de Santa Bárbara-Bahía de Ballenas",
      "lat": 19.437667,
      "lon": -99.17711,
      "capacity": 23
    },
    {
      "id": "228",
      "name": "CE-048 Independencia - Azueta",
      "lat": 19.433705,
      "lon": -99.146665,
      "capacity": 11
    },
    {
      "id": "229",
      "name": "CE-181 Benjamín Franklin - Ometusco",
      "lat": 19.404825166337652,
      "lon": -99.17472235863897,
      "capacity": 27
    },
    {
      "id": "230",
      "name": "CE-246 Leibnitz-Thiers",
      "lat": 19.434147,
      "lon": -99.179835,
      "capacity": 15
    },
    {
      "id": "231",
      "name": "CE-479 Lago Muritz-Av.Marina Nacional",
      "lat": 19.444433,
      "lon": -99.179664,
      "capacity": 25
    },
    {
      "id": "232",
      "name": "CE-281 Pitágoras-La Morena",
      "lat": 19.398532,
      "lon": -99.157308,
      "capacity": 31
    },
    {
      "id": "233",
      "name": "CE-480 Lago Iseo-Av. Marina Nacional",
      "lat": 19.446073,
      "lon": -99.181654,
      "capacity": 19
    },
    {
      "id": "234",
      "name": "CE-041 Reforma - Av. de la República",
      "lat": 19.43542,
      "lon": -99.150317,
      "capacity": 33
    },
    {
      "id": "235",
      "name": "CE-226 Wallon-Presidente Masaryk",
      "lat": 19.4310009,
      "lon": -99.1821808,
      "capacity": 27
    },
    {
      "id": "236",
      "name": "CE-468 Lago Xochimilco-Av. Ejército Nacional",
      "lat": 19.437250121513653,
      "lon": -99.1795731336424,
      "capacity": 33
    },
    {
      "id": "237",
      "name": "CE-256 Gómez Farías-Sadi Carnot",
      "lat": 19.437128,
      "lon": -99.158363,
      "capacity": 23
    },
    {
      "id": "238",
      "name": "CE-119 Turín-Abraham González",
      "lat": 19.4268522887659,
      "lon": -99.1556279361248,
      "capacity": 29
    },
    {
      "id": "239",
      "name": "CE-475 Lago Muritz-Lago Alberto",
      "lat": 19.439249,
      "lon": -99.181065,
      "capacity": 23
    },
    {
      "id": "240",
      "name": "CE-010 Reforma - Ramírez",
      "lat": 19.433431,
      "lon": -99.155142,
      "capacity": 27
    },
    {
      "id": "241",
      "name": "CE-450 Ramos Arizpe- Av México Tenochtitlan",
      "lat": 19.43832573320297,
      "lon": -99.15223784747468,
      "capacity": 31
    },
    {
      "id": "242",
      "name": "CE-555 Ribera de San Cosme - Insurgentes Centro",
      "lat": 19.44021597,
      "lon": -99.1561678,
      "capacity": 35
    },
    {
      "id": "243",
      "name": "CE-270 De la República-Ponciano Arriaga",
      "lat": 19.436764,
      "lon": -99.153865,
      "capacity": 33
    },
    {
      "id": "244",
      "name": "CE-248 Shakespeare-Lafayette",
      "lat": 19.43175,
      "lon": -99.177399,
      "capacity": 23
    },
    {
      "id": "245",
      "name": "CE-476 Lago Como-Laguna de Mayrán",
      "lat": 19.442127,
      "lon": -99.184433,
      "capacity": 35
    },
    {
      "id": "246",
      "name": "CE-174 Joaquín Garcia Icazbalceta-Ignacio Manuel Altamirano",
      "lat": 19.441133258345886,
      "lon": -99.16170336308824,
      "capacity": 31
    },
    {
      "id": "247",
      "name": "CE-237-238 Andrés Bello-George Eliot",
      "lat": 19.426744,
      "lon": -99.193986,
      "capacity": 63
    },
    {
      "id": "249",
      "name": "CE-124 Claudio Bernard-Dr. Liceaga",
      "lat": 19.422392,
      "lon": -99.150358,
      "capacity": 35
    },
    {
      "id": "250",
      "name": "CE-082 Independencia - Marroquí",
      "lat": 19.433344,
      "lon": -99.14404,
      "capacity": 11
    },
    {
      "id": "251",
      "name": "CE-262 República de Cuba-República de Brasil",
      "lat": 19.436931,
      "lon": -99.133952,
      "capacity": 31
    },
    {
      "id": "252",
      "name": "CE-235-236 Campos Elíseos-Moliere",
      "lat": 19.429417,
      "lon": -99.202353,
      "capacity": 55
    },
    {
      "id": "253",
      "name": "CE-104 San Jerónimo-Isabel la Católica",
      "lat": 19.427059,
      "lon": -99.137116,
      "capacity": 11
    },
    {
      "id": "254",
      "name": "CE-136 Álvaro Obregón-Tonalá",
      "lat": 19.417715,
      "lon": -99.162729,
      "capacity": 23
    },
    {
      "id": "255",
      "name": "CE-183 Gabino Barreda-Guillermo Prieto",
      "lat": 19.437665,
      "lon": -99.164018,
      "capacity": 35
    },
    {
      "id": "256",
      "name": "CE-095 20 de Noviembre-Venustiano Carranza",
      "lat": 19.430682555945197,
      "lon": -99.1337009892004,
      "capacity": 19
    },
    {
      "id": "257",
      "name": "CE-036 Puebla - Veracruz",
      "lat": 19.41966,
      "lon": -99.17588,
      "capacity": 31
    },
    {
      "id": "258",
      "name": "CE-063 Nuevo León - Laredo",
      "lat": 19.413091238892452,
      "lon": -99.1716201604504,
      "capacity": 35
    },
    {
      "id": "259",
      "name": "CE-087 Gante - Venustiano Carranza",
      "lat": 19.432024,
      "lon": -99.139705,
      "capacity": 25
    },
    {
      "id": "260",
      "name": "CE-020 Reforma- Río Támesis",
      "lat": 19.43086152710901,
      "lon": -99.16025899353372,
      "capacity": 23
    },
    {
      "id": "261",
      "name": "CE-015 Reforma - Río Mississippi",
      "lat": 19.425597,
      "lon": -99.171409,
      "capacity": 23
    },
    {
      "id": "262",
      "name": "CE-075 Alfonso Reyes - Atlixco",
      "lat": 19.408740687234836,
      "lon": -99.17677424853537,
      "capacity": 33
    },
    {
      "id": "263",
      "name": "CE-017 Reforma - Río Tiber",
      "lat": 19.427553,
      "lon": -99.167396,
      "capacity": 27
    },
    {
      "id": "264",
      "name": "CE-080 Nuevo León - Aguascalientes",
      "lat": 19.407239898913133,
      "lon": -99.17207747708744,
      "capacity": 35
    },
    {
      "id": "265",
      "name": "CE-023 Reforma - Praga",
      "lat": 19.42528,
      "lon": -99.171099,
      "capacity": 36
    },
    {
      "id": "266",
      "name": "CE-085 Rosas Moreno - Sullivan",
      "lat": 19.434059327049166,
      "lon": -99.16243817658597,
      "capacity": 15
    },
    {
      "id": "267",
      "name": "CE-014 Reforma - Río de Plata",
      "lat": 19.42454,
      "lon": -99.173247,
      "capacity": 39
    },
    {
      "id": "268",
      "name": "CE-135 Álvaro Obregón-Morelia",
      "lat": 19.419250969141167,
      "lon": -99.15503863246612,
      "capacity": 38
    },
    {
      "id": "269",
      "name": "CE-089 República de Guatemala - Monte de Piedad",
      "lat": 19.434962,
      "lon": -99.133729,
      "capacity": 11
    },
    {
      "id": "270",
      "name": "CE-133 Colima-Morelia",
      "lat": 19.421138,
      "lon": -99.154725,
      "capacity": 35
    },
    {
      "id": "271",
      "name": "CE-141 Zacatecas-Luis Cabrera",
      "lat": 19.415905,
      "lon": -99.15954,
      "capacity": 31
    },
    {
      "id": "272",
      "name": "CE-092 San Ildefonso-República de Argentina",
      "lat": 19.436531,
      "lon": -99.131497,
      "capacity": 23
    },
    {
      "id": "273",
      "name": "CE-470 Bahía de Las Palmas-Bahía de Todos Los Santos",
      "lat": 19.435039,
      "lon": -99.173879,
      "capacity": 23
    },
    {
      "id": "275",
      "name": "CE-239 Rincón del Bosque-Ruben Darío",
      "lat": 19.430153,
      "lon": -99.181355,
      "capacity": 19
    },
    {
      "id": "276",
      "name": "CE-656 Ignacio Allende - Paris",
      "lat": 19.3543111,
      "lon": -99.1624361,
      "capacity": 35
    },
    {
      "id": "277",
      "name": "CE-305 Avenida del Parque-Arizona",
      "lat": 19.394693,
      "lon": -99.175531,
      "capacity": 31
    },
    {
      "id": "278",
      "name": "CE-121 Niza-Chapultepec",
      "lat": 19.424178,
      "lon": -99.16115,
      "capacity": 15
    },
    {
      "id": "279",
      "name": "CE-027 Reforma- Havre",
      "lat": 19.42916,
      "lon": -99.162703,
      "capacity": 43
    },
    {
      "id": "280",
      "name": "CE-252 Víctor Hugo-Shakespeare",
      "lat": 19.427575,
      "lon": -99.17702,
      "capacity": 19
    },
    {
      "id": "281",
      "name": "CE-251 Goethe-Darwin",
      "lat": 19.429261,
      "lon": -99.17538,
      "capacity": 15
    },
    {
      "id": "282",
      "name": "CE-117 Londres-Nápoles",
      "lat": 19.427166592327957,
      "lon": -99.16029106826954,
      "capacity": 31
    },
    {
      "id": "283",
      "name": "CE-250 Darwin-Mariano Escobedo",
      "lat": 19.428949,
      "lon": -99.179796,
      "capacity": 23
    },
    {
      "id": "284",
      "name": "CE-217 Euler-Horacio",
      "lat": 19.432850919536445,
      "lon": -99.18354526173061,
      "capacity": 31
    },
    {
      "id": "285",
      "name": "CE-224 Hegel-Presidente Masaryk",
      "lat": 19.431115,
      "lon": -99.188082,
      "capacity": 15
    },
    {
      "id": "286",
      "name": "CE-215 Edgar Alan Poe-Horacio",
      "lat": 19.43384,
      "lon": -99.19968,
      "capacity": 23
    },
    {
      "id": "287",
      "name": "CE-202 Calderón de la Barca-Av. Homero",
      "lat": 19.436064,
      "lon": -99.198898,
      "capacity": 19
    },
    {
      "id": "288",
      "name": "CE-240 Ejército Nacional-F.C. de Cuernavaca",
      "lat": 19.438634297233477,
      "lon": -99.20629061763975,
      "capacity": 17
    },
    {
      "id": "289",
      "name": "CE-047 Plaza Madrid-Medellín",
      "lat": 19.419506460644055,
      "lon": -99.16636526590081,
      "capacity": 29
    },
    {
      "id": "290",
      "name": "CE-258 Circuito Interior-Juan Escutia",
      "lat": 19.4165298,
      "lon": -99.1790435,
      "capacity": 33
    },
    {
      "id": "291",
      "name": "CE-011 Río Amazonas - Río Lerma",
      "lat": 19.431192,
      "lon": -99.163546,
      "capacity": 15
    },
    {
      "id": "292",
      "name": "CE-001 Río Sena-Río Balsas",
      "lat": 19.4337846,
      "lon": -99.1679872,
      "capacity": 35
    },
    {
      "id": "293",
      "name": "CE-103 Joaquín Velázquez de León - García Icazbalceta",
      "lat": 19.441533,
      "lon": -99.165268,
      "capacity": 31
    },
    {
      "id": "294",
      "name": "CE-013 Reforma - Río Mississippi",
      "lat": 19.424941,
      "lon": -99.17233,
      "capacity": 28
    },
    {
      "id": "295",
      "name": "CE-018 Reforma - Río Rhin",
      "lat": 19.428802,
      "lon": -99.164381,
      "capacity": 39
    },
    {
      "id": "296",
      "name": "CE-038 Cozumel - Puebla",
      "lat": 19.420862316439543,
      "lon": -99.17145028710365,
      "capacity": 35
    },
    {
      "id": "297",
      "name": "CE-449 Acapulco-Puebla",
      "lat": 19.420281,
      "lon": -99.174392,
      "capacity": 27
    },
    {
      "id": "298",
      "name": "CE-028 Toledo- Tokio",
      "lat": 19.423664,
      "lon": -99.172568,
      "capacity": 35
    },
    {
      "id": "299",
      "name": "CE-034 Liverpool - Génova",
      "lat": 19.42472751913646,
      "lon": -99.16334755721435,
      "capacity": 23
    },
    {
      "id": "300",
      "name": "CE-232 Taine - Rubén Darío",
      "lat": 19.42894,
      "lon": -99.185389,
      "capacity": 31
    },
    {
      "id": "301",
      "name": "CE-227 Campos Elíseos-Periférico",
      "lat": 19.431783492215445,
      "lon": -99.20738060028725,
      "capacity": 23
    },
    {
      "id": "302",
      "name": "CE-211 Isaac Newton-Horacio",
      "lat": 19.43385,
      "lon": -99.188275,
      "capacity": 35
    },
    {
      "id": "303",
      "name": "CE-478 Laguna de Mayrán-Lago Chalco",
      "lat": 19.440818,
      "lon": -99.176961,
      "capacity": 27
    },
    {
      "id": "304",
      "name": "CE-474 Bahía de San Hipólito-Bahía del Espíritu Santo",
      "lat": 19.438984,
      "lon": -99.177549,
      "capacity": 31
    },
    {
      "id": "305",
      "name": "CE-176 Av. Jesús García-Luis Donaldo Colosio",
      "lat": 19.442717,
      "lon": -99.152262,
      "capacity": 39
    },
    {
      "id": "306",
      "name": "CE-244 Lago Victoria-Miguel de Cervantes Saavedra",
      "lat": 19.440508,
      "lon": -99.193681,
      "capacity": 23
    },
    {
      "id": "307",
      "name": "CE-219 Esopo-FC de Cuernavaca",
      "lat": 19.433364,
      "lon": -99.207553,
      "capacity": 39
    },
    {
      "id": "309",
      "name": "CE-465 Lago Ginebra-Lago Wetter",
      "lat": 19.445039,
      "lon": -99.194078,
      "capacity": 27
    },
    {
      "id": "311",
      "name": "CE-257 Manuel Maria Contreras-Villalongin",
      "lat": 19.433803,
      "lon": -99.166223,
      "capacity": 19
    },
    {
      "id": "312",
      "name": "CE-455 Pedregal-Ferrocarril De Cuernavaca",
      "lat": 19.426308,
      "lon": -99.2033,
      "capacity": 23
    },
    {
      "id": "313",
      "name": "CE-266-267 Jesús García - Carlos J. Meneses",
      "lat": 19.444031,
      "lon": -99.152187,
      "capacity": 75
    },
    {
      "id": "314",
      "name": "CE-201 Lope de Vega-Av. Ejército Nacional",
      "lat": 19.437496732030738,
      "lon": -99.18721206491682,
      "capacity": 19
    },
    {
      "id": "315",
      "name": "CE-208 Hesiodo-Lamartine",
      "lat": 19.434182,
      "lon": -99.189835,
      "capacity": 25
    },
    {
      "id": "316",
      "name": "CE-221 Emilio Castelar-Presidente Masaryk",
      "lat": 19.431799,
      "lon": -99.201565,
      "capacity": 25
    },
    {
      "id": "317",
      "name": "CE-210 Eugenio Sue-Horacio",
      "lat": 19.434076,
      "lon": -99.194091,
      "capacity": 27
    },
    {
      "id": "318",
      "name": "CE-021 Reforma - Dublín",
      "lat": 19.424809702659765,
      "lon": -99.1717654466629,
      "capacity": 25
    },
    {
      "id": "319",
      "name": "CE-206 Homero-Moliere",
      "lat": 19.436142,
      "lon": -99.200996,
      "capacity": 23
    },
    {
      "id": "320",
      "name": "CE-086 Sullivan-Insurgentes",
      "lat": 19.432452,
      "lon": -99.15924,
      "capacity": 17
    },
    {
      "id": "321",
      "name": "CE-233 Julio Verne-Luis G. Urbina",
      "lat": 19.429314,
      "lon": -99.196965,
      "capacity": 15
    },
    {
      "id": "322",
      "name": "CE-451 Campos Elíseos-Goldsmith",
      "lat": 19.428847,
      "lon": -99.201299,
      "capacity": 33
    },
    {
      "id": "323",
      "name": "CE-008 Reforma - General Prim",
      "lat": 19.431256,
      "lon": -99.158153,
      "capacity": 17
    },
    {
      "id": "324",
      "name": "CE-223 Isaac Newton-Presidente Masaryk",
      "lat": 19.431242,
      "lon": -99.191613,
      "capacity": 35
    },
    {
      "id": "325",
      "name": "CE-668 Plateros - Capuchinas",
      "lat": 19.367522,
      "lon": -99.181727,
      "capacity": 33
    },
    {
      "id": "326",
      "name": "CE-242 Pról. Moliere-Miguel de Cervantes Saavedra",
      "lat": 19.44002672090815,
      "lon": -99.20071095250022,
      "capacity": 31
    },
    {
      "id": "327",
      "name": "CE-050 Cuernavaca - Veracruz",
      "lat": 19.41682441224743,
      "lon": -99.17378827934954,
      "capacity": 27
    },
    {
      "id": "328",
      "name": "CE-145 Yucatán-Chiapas",
      "lat": 19.41286,
      "lon": -99.160661,
      "capacity": 27
    },
    {
      "id": "329",
      "name": "CE-142 San Luis Potosí-Eje 2 Pte. Monterrey",
      "lat": 19.41325186264067,
      "lon": -99.16412428026888,
      "capacity": 31
    },
    {
      "id": "330",
      "name": "CE-155 Jalapa-Tlaxcala",
      "lat": 19.408218,
      "lon": -99.159911,
      "capacity": 35
    },
    {
      "id": "331",
      "name": "CE-225 Petrarca-Presidente Masaryk",
      "lat": 19.431172,
      "lon": -99.185612,
      "capacity": 21
    },
    {
      "id": "332",
      "name": "CE-553  Jaime Torres Bodet - Ribera de San Cosme",
      "lat": 19.442,
      "lon": -99.1593333,
      "capacity": 35
    },
    {
      "id": "333",
      "name": "CE-051 Colima - Oaxaca",
      "lat": 19.418031,
      "lon": -99.168435,
      "capacity": 27
    },
    {
      "id": "334",
      "name": "CE-170 Observatorio Oriente-Revolución",
      "lat": 19.404029,
      "lon": -99.184342,
      "capacity": 23
    },
    {
      "id": "335",
      "name": "CE-452 Leibnitz-Av. Ejercito Nacional",
      "lat": 19.435867,
      "lon": -99.179856,
      "capacity": 15
    },
    {
      "id": "336",
      "name": "CE-552 Fresno - Ribera de San Cosme",
      "lat": 19.4431081,
      "lon": -99.1624537,
      "capacity": 23
    },
    {
      "id": "337",
      "name": "CE-130 Mérida-Durango",
      "lat": 19.421576,
      "lon": -99.158015,
      "capacity": 23
    },
    {
      "id": "338",
      "name": "CE-062 Fernando Montes de Oca - Amatlan",
      "lat": 19.41331637033966,
      "lon": -99.17530506854746,
      "capacity": 19
    },
    {
      "id": "339",
      "name": "CE-061 Avenida México - Sonora",
      "lat": 19.413832444192096,
      "lon": -99.16939929138606,
      "capacity": 35
    },
    {
      "id": "340",
      "name": "CE-129 Tonalá-Durango",
      "lat": 19.4206,
      "lon": -99.163312,
      "capacity": 23
    },
    {
      "id": "341",
      "name": "CE-068 Tamaulipas - Michoacán",
      "lat": 19.41166825384696,
      "lon": -99.17382381861898,
      "capacity": 25
    },
    {
      "id": "342",
      "name": "CE-448 Dr. Andrade-Arcos De Belén",
      "lat": 19.426611,
      "lon": -99.14447,
      "capacity": 31
    },
    {
      "id": "343",
      "name": "CE-253 Dante-Tolstoi",
      "lat": 19.42644758104329,
      "lon": -99.17815290396902,
      "capacity": 19
    },
    {
      "id": "344",
      "name": "CE-487 Nopaltzin - Quetzalcoatl",
      "lat": 19.441728,
      "lon": -99.167477,
      "capacity": 23
    },
    {
      "id": "345",
      "name": "CE-554 Heroes Ferrocarrileros - Mariano Azuela",
      "lat": 19.4417473,
      "lon": -99.155639,
      "capacity": 27
    },
    {
      "id": "346",
      "name": "CE-151 Campeche-Tonalá",
      "lat": 19.410529,
      "lon": -99.160873,
      "capacity": 27
    },
    {
      "id": "347",
      "name": "CE-550 Sor Juana Ines de la Cruz - Fresno",
      "lat": 19.445947026056686,
      "lon": -99.16137836878987,
      "capacity": 23
    },
    {
      "id": "348",
      "name": "CE-551 Nogal - Ribera de San Cosme",
      "lat": 19.4435806,
      "lon": -99.1648833,
      "capacity": 23
    },
    {
      "id": "349",
      "name": "CE-549 Sor Juana Ines de la Cruz - Dr. Atl",
      "lat": 19.4450444,
      "lon": -99.1571333,
      "capacity": 27
    },
    {
      "id": "350",
      "name": "CE-162 Tehuantepec-Medellín",
      "lat": 19.404907,
      "lon": -99.162485,
      "capacity": 27
    },
    {
      "id": "352",
      "name": "CE-024 Reforma- Florencia",
      "lat": 19.426614,
      "lon": -99.168078,
      "capacity": 19
    },
    {
      "id": "353",
      "name": "CE-026 Reforma - Versalles",
      "lat": 19.432595,
      "lon": -99.154995,
      "capacity": 15
    },
    {
      "id": "354",
      "name": "CE-191 Gobernador Rafael Rebollar-Gobernador Vicente Eguía",
      "lat": 19.40796,
      "lon": -99.187901,
      "capacity": 19
    },
    {
      "id": "355",
      "name": "CE-045 Durango - Sonora",
      "lat": 19.418749,
      "lon": -99.171942,
      "capacity": 39
    },
    {
      "id": "356",
      "name": "CE-052 Hidalgo - Trujano",
      "lat": 19.436208,
      "lon": -99.141931,
      "capacity": 19
    },
    {
      "id": "357",
      "name": "CE-286 13 de Septiembre-Avenida Patriotismo",
      "lat": 19.399201,
      "lon": -99.179943,
      "capacity": 19
    },
    {
      "id": "358",
      "name": "CE-160 Alfonso Herrera-Gabino Barreda",
      "lat": 19.440252,
      "lon": -99.163455,
      "capacity": 23
    },
    {
      "id": "359",
      "name": "CE-194 Circuito Mahatma Gandhi-Reforma",
      "lat": 19.424282,
      "lon": -99.180334,
      "capacity": 35
    },
    {
      "id": "360",
      "name": "CE-659  Madrid - Avenida Mexico",
      "lat": 19.3564861,
      "lon": -99.1694556,
      "capacity": 23
    },
    {
      "id": "361",
      "name": "CE-096 López-Ayuntamiento",
      "lat": 19.430625,
      "lon": -99.14248,
      "capacity": 35
    },
    {
      "id": "362",
      "name": "CE-667 Hermes - Mosqueta",
      "lat": 19.363955445342725,
      "lon": -99.1807891801136,
      "capacity": 23
    },
    {
      "id": "363",
      "name": "CE-084 Chilpancingo - Tlaxcala",
      "lat": 19.406872,
      "lon": -99.169572,
      "capacity": 19
    },
    {
      "id": "364",
      "name": "CE-660 Josefa Ortiz de Dominguez - Circuito Interior",
      "lat": 19.3580028,
      "lon": -99.1701056,
      "capacity": 27
    },
    {
      "id": "365",
      "name": "CE-168 Comercio-Progreso",
      "lat": 19.403997,
      "lon": -99.1776,
      "capacity": 23
    },
    {
      "id": "366",
      "name": "CE-670 Felix Parra - Flamencos",
      "lat": 19.3676,
      "lon": -99.1849917,
      "capacity": 23
    },
    {
      "id": "367",
      "name": "CE-154 Tuxpan-Tlaxcala",
      "lat": 19.406511,
      "lon": -99.1678974,
      "capacity": 35
    },
    {
      "id": "368",
      "name": "CE-658 Vicente Guerrero - Berlín",
      "lat": 19.355339,
      "lon": -99.165613,
      "capacity": 19
    },
    {
      "id": "369",
      "name": "CE-657 Madrid - Centenario",
      "lat": 19.3574361,
      "lon": -99.1637944,
      "capacity": 19
    },
    {
      "id": "370",
      "name": "CE-184 General Gómez Pedraza-Gobernador Tiburcio Montiel",
      "lat": 19.414793,
      "lon": -99.185083,
      "capacity": 35
    },
    {
      "id": "371",
      "name": "CE-153 Manzanillo-Tlaxcala",
      "lat": 19.4074919,
      "lon": -99.1651437,
      "capacity": 23
    },
    {
      "id": "372",
      "name": "CE-077 Choapan - Tamaulipas",
      "lat": 19.406745,
      "lon": -99.178272,
      "capacity": 15
    },
    {
      "id": "373",
      "name": "CE-073 Campeche - Tamaulipas",
      "lat": 19.410073,
      "lon": -99.175542,
      "capacity": 35
    },
    {
      "id": "374",
      "name": "CE-078 Benjamín Hill - Tamaulipas",
      "lat": 19.407512,
      "lon": -99.177361,
      "capacity": 35
    },
    {
      "id": "375",
      "name": "CE-163 Toluca-Bajío",
      "lat": 19.405246,
      "lon": -99.15643,
      "capacity": 36
    },
    {
      "id": "376",
      "name": "CE-054 Parque España - Sonora",
      "lat": 19.416163,
      "lon": -99.170795,
      "capacity": 35
    },
    {
      "id": "377",
      "name": "CE-169 Prosperidad-Progreso",
      "lat": 19.403019,
      "lon": -99.174934,
      "capacity": 23
    },
    {
      "id": "378",
      "name": "CE-430 Tripoli-Av. Popocatépetl (Eje 8)",
      "lat": 19.36205,
      "lon": -99.154976,
      "capacity": 23
    },
    {
      "id": "379",
      "name": "CE-171 Comercio-Jose Martí",
      "lat": 19.40253247789727,
      "lon": -99.1782025248358,
      "capacity": 27
    },
    {
      "id": "380",
      "name": "CE-309 Pensilvania-Arizona",
      "lat": 19.393059,
      "lon": -99.179483,
      "capacity": 31
    },
    {
      "id": "381",
      "name": "CE-182 Progreso-Astrónomos",
      "lat": 19.402028398340054,
      "lon": -99.17129248386118,
      "capacity": 31
    },
    {
      "id": "382",
      "name": "CE-331 Avenida 2-Calle 17",
      "lat": 19.388748,
      "lon": -99.183924,
      "capacity": 27
    },
    {
      "id": "383",
      "name": "CE-279 La Morena-Providencia",
      "lat": 19.399908,
      "lon": -99.166553,
      "capacity": 31
    },
    {
      "id": "384",
      "name": "CE-187 General Cano-Gobernador Gregorio V. Gelati",
      "lat": 19.411227,
      "lon": -99.185514,
      "capacity": 23
    },
    {
      "id": "385",
      "name": "CE-291 Magdalena-División Del Norte",
      "lat": 19.397651,
      "lon": -99.169946,
      "capacity": 35
    },
    {
      "id": "386",
      "name": "CE-297 Diagonal San Antonio-Enrique Rébsamen",
      "lat": 19.394412,
      "lon": -99.158907,
      "capacity": 27
    },
    {
      "id": "387",
      "name": "CE-310 Calle 1-Av. Patriotismo",
      "lat": 19.395316464981526,
      "lon": -99.18172560637684,
      "capacity": 15
    },
    {
      "id": "388",
      "name": "CE-314 Nueva York-Louisiana",
      "lat": 19.391647,
      "lon": -99.177331,
      "capacity": 19
    },
    {
      "id": "389",
      "name": "CE-351 Calle 27-Avenida Revolución",
      "lat": 19.385751,
      "lon": -99.186297,
      "capacity": 15
    },
    {
      "id": "390",
      "name": "CE-319 Diagonal San Antonio-Luz Saviñón",
      "lat": 19.391991,
      "lon": -99.162684,
      "capacity": 27
    },
    {
      "id": "391",
      "name": "CE-329 Calle 13-Avenida 1",
      "lat": 19.390306,
      "lon": -99.184812,
      "capacity": 31
    },
    {
      "id": "392",
      "name": "CE-164 Bajío-Tlacotalpan",
      "lat": 19.4032285,
      "lon": -99.1658539,
      "capacity": 27
    },
    {
      "id": "393",
      "name": "CE-295 Anaxágoras-Eje 4 Sur Xola",
      "lat": 19.396505,
      "lon": -99.156877,
      "capacity": 35
    },
    {
      "id": "394",
      "name": "CE-336 San Borja-Cda. Dr. J. Bartolache",
      "lat": 19.385531,
      "lon": -99.169673,
      "capacity": 23
    },
    {
      "id": "395",
      "name": "CE-296 Diagonal San Antonio-Enrique Rébsamen",
      "lat": 19.394283,
      "lon": -99.158756,
      "capacity": 23
    },
    {
      "id": "396",
      "name": "CE-323 Concepción Beistegui-Gabriel Mancera",
      "lat": 19.388986312246836,
      "lon": -99.1632449628014,
      "capacity": 27
    },
    {
      "id": "397",
      "name": "CE-340 Anaxágoras-Avenida Eugenia",
      "lat": 19.385625037771153,
      "lon": -99.15819257503244,
      "capacity": 31
    },
    {
      "id": "398",
      "name": "CE-669 Los Juarez - Sagredo",
      "lat": 19.37076863433144,
      "lon": -99.1873613745247,
      "capacity": 23
    },
    {
      "id": "399",
      "name": "CE-209 Solón-Horacio",
      "lat": 19.435478,
      "lon": -99.206359,
      "capacity": 19
    },
    {
      "id": "400",
      "name": "CE-317 Avenida Coyoacán-Torres Adalid",
      "lat": 19.391456,
      "lon": -99.166157,
      "capacity": 35
    },
    {
      "id": "401",
      "name": "CE-299 Romero de Terreros-Mier Y Pesado",
      "lat": 19.394601,
      "lon": -99.165054,
      "capacity": 27
    },
    {
      "id": "402",
      "name": "CE-276 Anaxágoras-Obrero Mundial",
      "lat": 19.401986,
      "lon": -99.156366,
      "capacity": 19
    },
    {
      "id": "403",
      "name": "CE-090 José María Pino Suárez - Corregidora",
      "lat": 19.43144,
      "lon": -99.132513,
      "capacity": 27
    },
    {
      "id": "404",
      "name": "CE-304 Montecito-Dakota",
      "lat": 19.395043,
      "lon": -99.173821,
      "capacity": 35
    },
    {
      "id": "405",
      "name": "CE-352 Tintoreto-Giorgione",
      "lat": 19.384146,
      "lon": -99.185491,
      "capacity": 31
    },
    {
      "id": "406",
      "name": "CE-366 Porfirio Díaz-Augusto Rodin",
      "lat": 19.378423,
      "lon": -99.181891,
      "capacity": 19
    },
    {
      "id": "407",
      "name": "CE-395 San Lorenzo-Martín Mendalde",
      "lat": 19.373725,
      "lon": -99.169807,
      "capacity": 31
    },
    {
      "id": "408",
      "name": "CE-316 San Francisco-Concepción Beistegui",
      "lat": 19.391056,
      "lon": -99.1712,
      "capacity": 27
    },
    {
      "id": "409",
      "name": "CE-292 Adolfo Prieto-Eje 4 Sur Xola",
      "lat": 19.396917,
      "lon": -99.166264,
      "capacity": 31
    },
    {
      "id": "410",
      "name": "CE-380 Moras-San Lorenzo",
      "lat": 19.374756,
      "lon": -99.173539,
      "capacity": 23
    },
    {
      "id": "411",
      "name": "CE-338 Nicolás San Juan-San Borja",
      "lat": 19.384242,
      "lon": -99.16326,
      "capacity": 27
    },
    {
      "id": "412",
      "name": "CE-420 María Luz Bringas-Oso",
      "lat": 19.36967233269665,
      "lon": -99.17958118026945,
      "capacity": 23
    },
    {
      "id": "413",
      "name": "CE-373 Pilares-Gabriel Mancera",
      "lat": 19.377932,
      "lon": -99.166594,
      "capacity": 19
    },
    {
      "id": "414",
      "name": "CE-416 Recreo-Parroquia",
      "lat": 19.371279,
      "lon": -99.177623,
      "capacity": 27
    },
    {
      "id": "415",
      "name": "CE-386 Poussin-Donatello",
      "lat": 19.374912,
      "lon": -99.185807,
      "capacity": 39
    },
    {
      "id": "416",
      "name": "CE-347 Pennsylvania-Maximino Avila Camacho",
      "lat": 19.384474,
      "lon": -99.176084,
      "capacity": 19
    },
    {
      "id": "417",
      "name": "CE-342 Pitágoras-Av. División del Norte",
      "lat": 19.38237,
      "lon": -99.1598779,
      "capacity": 31
    },
    {
      "id": "418",
      "name": "CE-328 Avenida 1-Calle 7",
      "lat": 19.392721,
      "lon": -99.184727,
      "capacity": 15
    },
    {
      "id": "419",
      "name": "CE-369 Porfirio Díaz-Av. Insurgentes",
      "lat": 19.379941,
      "lon": -99.177224,
      "capacity": 35
    },
    {
      "id": "420",
      "name": "CE-389 Santander-Félix Cuevas",
      "lat": 19.373655,
      "lon": -99.179029,
      "capacity": 39
    },
    {
      "id": "421",
      "name": "CE-205 Taine-Homero",
      "lat": 19.43552573443183,
      "lon": -99.18474711483212,
      "capacity": 19
    },
    {
      "id": "422",
      "name": "CE-396 Martin Mendalde-Felix Cuevas",
      "lat": 19.37165,
      "lon": -99.17015,
      "capacity": 19
    },
    {
      "id": "423",
      "name": "CE-436 Rodríguez Saro-Búfalo",
      "lat": 19.36623,
      "lon": -99.177904,
      "capacity": 30
    },
    {
      "id": "424",
      "name": "CE-334 Nueva York-Av. Insurgentes",
      "lat": 19.386530826718293,
      "lon": -99.17510658508034,
      "capacity": 27
    },
    {
      "id": "425",
      "name": "CE-385 Poussin-Empresa",
      "lat": 19.375650918831095,
      "lon": -99.18558642279095,
      "capacity": 35
    },
    {
      "id": "426",
      "name": "CE-422 Búfalo-José María Rico (Eje 8)",
      "lat": 19.368403,
      "lon": -99.177472,
      "capacity": 19
    },
    {
      "id": "427",
      "name": "CE-363 Holbein-Paulo Ucello",
      "lat": 19.380839,
      "lon": -99.183932,
      "capacity": 23
    },
    {
      "id": "428",
      "name": "CE-355 California-Sacramento",
      "lat": 19.38201131984727,
      "lon": -99.17328938847277,
      "capacity": 19
    },
    {
      "id": "429",
      "name": "CE-346 San Francisco-Santa Margarita",
      "lat": 19.38496594717172,
      "lon": -99.17411729704327,
      "capacity": 26
    },
    {
      "id": "430",
      "name": "CE-290 Yosemite-Colorado",
      "lat": 19.39638,
      "lon": -99.1727082,
      "capacity": 26
    },
    {
      "id": "431",
      "name": "CE-371 Tlacoquemécatl-Capulín",
      "lat": 19.378546,
      "lon": -99.174297,
      "capacity": 23
    },
    {
      "id": "432",
      "name": "CE-401 San Lorenzo-Avenida Cuauhtémoc",
      "lat": 19.372101,
      "lon": -99.161501,
      "capacity": 31
    },
    {
      "id": "433",
      "name": "CE-356 Matías Romero -Adolfo Prieto",
      "lat": 19.381287,
      "lon": -99.1702,
      "capacity": 15
    },
    {
      "id": "434",
      "name": "CE-433 Jose María Olloqui-Lopéz Cotilla",
      "lat": 19.363548,
      "lon": -99.170766,
      "capacity": 19
    },
    {
      "id": "435",
      "name": "CE-277 Prolongación Tonalá-Obrero Mundial",
      "lat": 19.401807,
      "lon": -99.15909,
      "capacity": 31
    },
    {
      "id": "436",
      "name": "CE-172 General Francisco Murguía-José Martí",
      "lat": 19.4035308,
      "lon": -99.1816702,
      "capacity": 19
    },
    {
      "id": "437",
      "name": "CE-404 Miguel Laurent-Avenida División Del Norte",
      "lat": 19.373833,
      "lon": -99.157433,
      "capacity": 31
    },
    {
      "id": "438",
      "name": "CE-203 Tennyson-Av. Homero",
      "lat": 19.435985,
      "lon": -99.194832,
      "capacity": 23
    },
    {
      "id": "439",
      "name": "CE-473 Bahía del Espíritu Santo-Bahía de Banderas",
      "lat": 19.438143,
      "lon": -99.17519,
      "capacity": 35
    },
    {
      "id": "440",
      "name": "CE-462 Presa Falcón-Presa Danxhó",
      "lat": 19.442338,
      "lon": -99.205198,
      "capacity": 23
    },
    {
      "id": "441",
      "name": "CE-477 Lago Iseo-Laguna de Mayrán",
      "lat": 19.440905,
      "lon": -99.181743,
      "capacity": 23
    },
    {
      "id": "442",
      "name": "CE-471 Bahía de Chachalacas-Bahía de Santa Bárbara",
      "lat": 19.436287,
      "lon": -99.174888,
      "capacity": 19
    },
    {
      "id": "443",
      "name": "CE-321 Torres Adalid-Anaxágoras",
      "lat": 19.389477,
      "lon": -99.157513,
      "capacity": 27
    },
    {
      "id": "444",
      "name": "CE-444 General Manuel Rincón-Agustín Gutierrez",
      "lat": 19.359475,
      "lon": -99.159437,
      "capacity": 19
    },
    {
      "id": "445",
      "name": "CE-441 Puente Xoco-Real de Mayorazgo",
      "lat": 19.361213660076572,
      "lon": -99.16772089901315,
      "capacity": 31
    },
    {
      "id": "446",
      "name": "CE-055  5 De Mayo - Bolívar",
      "lat": 19.434514,
      "lon": -99.138068,
      "capacity": 15
    },
    {
      "id": "447",
      "name": "CE-138 Guanajuato-Frontera",
      "lat": 19.417702,
      "lon": -99.155313,
      "capacity": 27
    },
    {
      "id": "448",
      "name": "CE-359 Matías Romero -Pestalozzi",
      "lat": 19.379331,
      "lon": -99.161163,
      "capacity": 31
    },
    {
      "id": "449",
      "name": "CE-398 Juan Sánchez Azcona-Félix Cuevas",
      "lat": 19.37104,
      "lon": -99.165653,
      "capacity": 27
    },
    {
      "id": "450",
      "name": "CE-178 Tamaulipas-Francisco Murguía",
      "lat": 19.406833,
      "lon": -99.180457,
      "capacity": 23
    },
    {
      "id": "451",
      "name": "CE-198 Sócrates-Ejército Nacional",
      "lat": 19.438173973703993,
      "lon": -99.20383617292828,
      "capacity": 25
    },
    {
      "id": "452",
      "name": "CE-326 Eugenia-Nebraska",
      "lat": 19.388978,
      "lon": -99.174811,
      "capacity": 35
    },
    {
      "id": "453",
      "name": "CE-622 Fernando Montes de Oca - Eje 6 Sur",
      "lat": 19.378351,
      "lon": -99.143996,
      "capacity": 27
    },
    {
      "id": "454",
      "name": "CE-402 Uxmal-Municipio Libre",
      "lat": 19.371142,
      "lon": -99.158591,
      "capacity": 27
    },
    {
      "id": "455",
      "name": "CE-039 Puebla - Medellín",
      "lat": 19.421762,
      "lon": -99.166931,
      "capacity": 23
    },
    {
      "id": "456",
      "name": "CE-483 Colegio Salesiano - Marina Nacional",
      "lat": 19.443092,
      "lon": -99.177612,
      "capacity": 23
    },
    {
      "id": "457",
      "name": "CE-313 Pensilvania-Oklahoma",
      "lat": 19.391431,
      "lon": -99.178989,
      "capacity": 23
    },
    {
      "id": "458",
      "name": "CE-230 Edgar Allan Poe - Carlos Dickens",
      "lat": 19.430098,
      "lon": -99.200074,
      "capacity": 15
    },
    {
      "id": "459",
      "name": "CE-485 Lago de Pátzcuaro - Marina Nacional",
      "lat": 19.438506,
      "lon": -99.172696,
      "capacity": 23
    },
    {
      "id": "460",
      "name": "CE-392 Patricio Sanz-Félix Cuevas",
      "lat": 19.373004,
      "lon": -99.174764,
      "capacity": 19
    },
    {
      "id": "461",
      "name": "CE-453 Pedregal-Teapa",
      "lat": 19.424842,
      "lon": -99.203739,
      "capacity": 31
    },
    {
      "id": "462",
      "name": "CE-357 Matías Romero -Amores",
      "lat": 19.380617,
      "lon": -99.167066,
      "capacity": 27
    },
    {
      "id": "463",
      "name": "CE-546 Salvador Díaz Mirón - Santa María la Ribera",
      "lat": 19.448764,
      "lon": -99.156817,
      "capacity": 23
    },
    {
      "id": "464",
      "name": "CE-301 Luz Saviñón-Magdalena",
      "lat": 19.393807,
      "lon": -99.171133,
      "capacity": 25
    },
    {
      "id": "465",
      "name": "CE-004 Río Nilo - Río Panuco",
      "lat": 19.428491,
      "lon": -99.171693,
      "capacity": 19
    },
    {
      "id": "466",
      "name": "CE-496 Maestro Rural - José Parres",
      "lat": 19.449039,
      "lon": -99.170246,
      "capacity": 35
    },
    {
      "id": "467",
      "name": "CE-146 Coahuila-Manzanillo",
      "lat": 19.410699360989387,
      "lon": -99.16587710386011,
      "capacity": 23
    },
    {
      "id": "468",
      "name": "CE-149 Mérida-Antonio M. Anza",
      "lat": 19.41199,
      "lon": -99.155699,
      "capacity": 31
    },
    {
      "id": "469",
      "name": "CE-495 Amado Nervo - de los Maestros",
      "lat": 19.445528,
      "lon": -99.166934,
      "capacity": 39
    },
    {
      "id": "470",
      "name": "CE-537 Fresno - Clavel",
      "lat": 19.457543649054422,
      "lon": -99.15946327155325,
      "capacity": 23
    },
    {
      "id": "471",
      "name": "CE-069 Michoacán - Ámsterdam",
      "lat": 19.410797,
      "lon": -99.168143,
      "capacity": 17
    },
    {
      "id": "472",
      "name": "CE-245 Lago Onega-Av. Ejército Nacional",
      "lat": 19.438347,
      "lon": -99.190503,
      "capacity": 21
    },
    {
      "id": "473",
      "name": "CE-425 Nicolas San Juan-Avenida Universidad",
      "lat": 19.36704,
      "lon": -99.167387,
      "capacity": 35
    },
    {
      "id": "474",
      "name": "CE-481 Lago Garda - Mariano Escobedo",
      "lat": 19.449367,
      "lon": -99.182461,
      "capacity": 19
    },
    {
      "id": "475",
      "name": "CE-502 Mar Mediterráneo - Callejón de la Zanja",
      "lat": 19.453432,
      "lon": -99.174636,
      "capacity": 35
    },
    {
      "id": "476",
      "name": "CE-504 Mar Blanco - Calzada México Tacuba",
      "lat": 19.455343,
      "lon": -99.179056,
      "capacity": 27
    },
    {
      "id": "477",
      "name": "CE-498 de los Maestros - Plan de Agua Prieta",
      "lat": 19.453146248510524,
      "lon": -99.16645511990282,
      "capacity": 37
    },
    {
      "id": "478",
      "name": "CE-536 Fresno - Eulalia Guzmán (Eje 2 Norte)",
      "lat": 19.458881,
      "lon": -99.159215,
      "capacity": 23
    },
    {
      "id": "479",
      "name": "CE-497 Manuel Carpio - Plan de Ayala",
      "lat": 19.452688,
      "lon": -99.170157,
      "capacity": 51
    },
    {
      "id": "480",
      "name": "CE-492 Lago Cuitzeo - Felipe Carrillo Puerto",
      "lat": 19.449153,
      "lon": -99.173433,
      "capacity": 35
    },
    {
      "id": "481",
      "name": "CE-503 Nextitla - Mar Egeo",
      "lat": 19.455571630398424,
      "lon": -99.17513005440924,
      "capacity": 19
    },
    {
      "id": "482",
      "name": "CE-506 Mar Mediterráneo - Mar Arábigo",
      "lat": 19.459553,
      "lon": -99.185111,
      "capacity": 27
    },
    {
      "id": "483",
      "name": "CE-507 Mar Mediterráneo - Azcapotzalco",
      "lat": 19.460292,
      "lon": -99.188303,
      "capacity": 31
    },
    {
      "id": "484",
      "name": "CE-499 de los Maestros - Calzada de los Gallos",
      "lat": 19.455986,
      "lon": -99.165966,
      "capacity": 39
    },
    {
      "id": "485",
      "name": "CE-458 Montes Urales-Volcán",
      "lat": 19.428679,
      "lon": -99.206605,
      "capacity": 19
    },
    {
      "id": "486",
      "name": "CE-541 Eligio Ancona - Naranjo",
      "lat": 19.45272,
      "lon": -99.158014,
      "capacity": 27
    },
    {
      "id": "487",
      "name": "CE-482 Lago Xochimilco - Laguna de San Cristóbal",
      "lat": 19.444826,
      "lon": -99.178393,
      "capacity": 23
    },
    {
      "id": "488",
      "name": "CE-545 Sabino - Salvador Díaz Mirón",
      "lat": 19.449098384943877,
      "lon": -99.15995210414621,
      "capacity": 27
    },
    {
      "id": "489",
      "name": "CE-486 Izcoatl - Circuito Interior Melchor Ocampo",
      "lat": 19.437334,
      "lon": -99.169573,
      "capacity": 23
    },
    {
      "id": "490",
      "name": "CE-098 Emilio Dondé-Av. Balderas",
      "lat": 19.430267,
      "lon": -99.14861,
      "capacity": 31
    },
    {
      "id": "491",
      "name": "CE-491 Colegio Salesiano - Lago Catemaco",
      "lat": 19.449405,
      "lon": -99.176635,
      "capacity": 23
    },
    {
      "id": "492",
      "name": "CE-672 José María Velasco - Damas",
      "lat": 19.363024,
      "lon": -99.182889,
      "capacity": 31
    },
    {
      "id": "493",
      "name": "CE-543 Jaime Torres Bodet - Manuel Carpio",
      "lat": 19.450506,
      "lon": -99.157375,
      "capacity": 27
    },
    {
      "id": "494",
      "name": "CE-540 Eucalipto - Ricardo Flores Magón",
      "lat": 19.453965040246473,
      "lon": -99.15246807044241,
      "capacity": 23
    },
    {
      "id": "495",
      "name": "CE-703 Miguel Hidalgo - Calzada General Anaya",
      "lat": 19.350776,
      "lon": -99.155379,
      "capacity": 23
    },
    {
      "id": "496",
      "name": "CE-673 Miguel Noreña - José María Ibarrarán",
      "lat": 19.363153,
      "lon": -99.186963,
      "capacity": 35
    },
    {
      "id": "497",
      "name": "CE-700 Abasolo - Miguel Hidalgo",
      "lat": 19.350062,
      "lon": -99.160024,
      "capacity": 35
    },
    {
      "id": "498",
      "name": "CE-704 Pacífico - Asia",
      "lat": 19.344842,
      "lon": -99.157702,
      "capacity": 23
    },
    {
      "id": "499",
      "name": "CE-709 Inglaterra - Antigua Taxqueña",
      "lat": 19.344275,
      "lon": -99.149988,
      "capacity": 23
    },
    {
      "id": "500",
      "name": "CE-706 Canadá - Acolotitla",
      "lat": 19.347503,
      "lon": -99.15244,
      "capacity": 23
    },
    {
      "id": "501",
      "name": "CE-702 Fernández Leal - Plaza de la Conchita",
      "lat": 19.347246,
      "lon": -99.15857,
      "capacity": 31
    },
    {
      "id": "502",
      "name": "CE-708 Irlanda-Canada",
      "lat": 19.346419552561255,
      "lon": -99.14566911759721,
      "capacity": 27
    },
    {
      "id": "503",
      "name": "CE-643 Filipinas - Av. Pirineos",
      "lat": 19.362323,
      "lon": -99.148805,
      "capacity": 39
    },
    {
      "id": "504",
      "name": "CE-597 Diagonal San Antonio - Icacos",
      "lat": 19.398858,
      "lon": -99.151211,
      "capacity": 27
    },
    {
      "id": "505",
      "name": "CE-694 Ignacio Aldama - Centenario",
      "lat": 19.353243,
      "lon": -99.163753,
      "capacity": 23
    },
    {
      "id": "506",
      "name": "CE-696 México - Malintzin",
      "lat": 19.351576,
      "lon": -99.164567,
      "capacity": 39
    },
    {
      "id": "507",
      "name": "CE-626 San Borja - Petén",
      "lat": 19.382115,
      "lon": -99.153988,
      "capacity": 27
    },
    {
      "id": "508",
      "name": "CE-615 Tajín - Universidad",
      "lat": 19.38748,
      "lon": -99.153876,
      "capacity": 31
    },
    {
      "id": "509",
      "name": "CE-630 Cuicuilco - Motozintla",
      "lat": 19.375677,
      "lon": -99.152953,
      "capacity": 31
    },
    {
      "id": "510",
      "name": "CE-701 Cuauhtémoc - Morelos",
      "lat": 19.352052,
      "lon": -99.157981,
      "capacity": 23
    },
    {
      "id": "511",
      "name": "CE-617 Mitla - Eje 5 Sur",
      "lat": 19.384589,
      "lon": -99.150517,
      "capacity": 31
    },
    {
      "id": "512",
      "name": "CE-692 Presidente Carranza - Francisco Sosa",
      "lat": 19.349149,
      "lon": -99.169646,
      "capacity": 19
    },
    {
      "id": "513",
      "name": "CE-688 Panzacola - Miguel Ángel de Quevedo",
      "lat": 19.346975,
      "lon": -99.178791,
      "capacity": 33
    },
    {
      "id": "514",
      "name": "CE-661 Madrid - Universidad",
      "lat": 19.35675,
      "lon": -99.171769,
      "capacity": 27
    },
    {
      "id": "515",
      "name": "CE-618 Bartolomé R. Salido - Edzna",
      "lat": 19.381824,
      "lon": -99.148086,
      "capacity": 31
    },
    {
      "id": "516",
      "name": "CE-602 Correspondencia - Eje Central Lázaro Cárdenas",
      "lat": 19.392523,
      "lon": -99.146194,
      "capacity": 35
    },
    {
      "id": "517",
      "name": "CE-559 Fernando de Alva Ixtlilxochitl - Diagonal 20 de noviembre",
      "lat": 19.420029,
      "lon": -99.140999,
      "capacity": 27
    },
    {
      "id": "518",
      "name": "CE-691 Melchor Ocampo - Dulce Olivia",
      "lat": 19.347283,
      "lon": -99.170834,
      "capacity": 23
    },
    {
      "id": "519",
      "name": "CE-689 G. Pérez Valenzuela - Salvador Novo",
      "lat": 19.351426,
      "lon": -99.175455,
      "capacity": 23
    },
    {
      "id": "520",
      "name": "CE-619 Kiff - Rafael Solana Verduguillo",
      "lat": 19.381277,
      "lon": -99.145804,
      "capacity": 23
    },
    {
      "id": "521",
      "name": "CE-649 Héroes del 47 - Calzada de Tlalpan",
      "lat": 19.35072,
      "lon": -99.146786,
      "capacity": 23
    },
    {
      "id": "522",
      "name": "CE-629 Tajín - Chichen Itzá",
      "lat": 19.376367,
      "lon": -99.155872,
      "capacity": 19
    },
    {
      "id": "523",
      "name": "CE-562 Claudio Bernard - José María Vertiz",
      "lat": 19.42037,
      "lon": -99.146818,
      "capacity": 23
    },
    {
      "id": "524",
      "name": "CE-609 Romero - Calzada de Tlalpan",
      "lat": 19.384623,
      "lon": -99.139817,
      "capacity": 31
    },
    {
      "id": "525",
      "name": "CE-623 Fernando Montes de Oca - Antonio Rodríguez",
      "lat": 19.375518,
      "lon": -99.144118,
      "capacity": 35
    },
    {
      "id": "526",
      "name": "CE-651 Héroes del 47 - División del Norte",
      "lat": 19.351578,
      "lon": -99.150941,
      "capacity": 31
    },
    {
      "id": "527",
      "name": "CE-612 Torres Adalid - Cumbres de Maltrata",
      "lat": 19.388148,
      "lon": -99.148446,
      "capacity": 31
    },
    {
      "id": "528",
      "name": "CE-577 Doctor Márquez - Doctor Jiménez",
      "lat": 19.411609,
      "lon": -99.15314,
      "capacity": 31
    },
    {
      "id": "529",
      "name": "CE-624 Luis Spota - Eje Central Lázaro Cárdenas",
      "lat": 19.377516,
      "lon": -99.148116,
      "capacity": 35
    },
    {
      "id": "530",
      "name": "CE-620 Fernando Montes de Oca - Priv. Lago",
      "lat": 19.381804,
      "lon": -99.142997,
      "capacity": 23
    },
    {
      "id": "531",
      "name": "CE-592 Cádiz - Eje Central Lázaro Cárdenas",
      "lat": 19.399664,
      "lon": -99.145136,
      "capacity": 27
    },
    {
      "id": "532",
      "name": "CE-637 Ajusco - Emperadores",
      "lat": 19.36576,
      "lon": -99.144413,
      "capacity": 23
    },
    {
      "id": "533",
      "name": "CE-604 Andalucía - Carteros",
      "lat": 19.390945,
      "lon": -99.142972,
      "capacity": 31
    },
    {
      "id": "534",
      "name": "CE-634 Rumania - Víctor Hugo",
      "lat": 19.370133,
      "lon": -99.145866,
      "capacity": 27
    },
    {
      "id": "535",
      "name": "CE-568 Doctor Barragán - Doctor Erazo",
      "lat": 19.418013,
      "lon": -99.144598,
      "capacity": 23
    },
    {
      "id": "536",
      "name": "CE-639 Bulgaria - Rumania",
      "lat": 19.364528,
      "lon": -99.146988,
      "capacity": 23
    },
    {
      "id": "537",
      "name": "CE-573 Fernando Ramírez - Isabel la Católica",
      "lat": 19.412853,
      "lon": -99.138723,
      "capacity": 27
    },
    {
      "id": "538",
      "name": "CE-494 Tláloc - Calzada México Tacuba",
      "lat": 19.444053,
      "lon": -99.167429,
      "capacity": 22
    },
    {
      "id": "539",
      "name": "CE-563 Doctor Velasco - Niños Héroes",
      "lat": 19.419444,
      "lon": -99.149776,
      "capacity": 23
    },
    {
      "id": "540",
      "name": "CE-560 Doctor Liceaga - Eje Central",
      "lat": 19.421599,
      "lon": -99.143408,
      "capacity": 27
    },
    {
      "id": "541",
      "name": "CE-611 Miguel Negrete - Niños Héroes de Chapultepec",
      "lat": 19.387506,
      "lon": -99.146338,
      "capacity": 23
    },
    {
      "id": "542",
      "name": "CE-567 Doctor Martínez del Río - Doctor José Terrés",
      "lat": 19.417133,
      "lon": -99.145649,
      "capacity": 23
    },
    {
      "id": "543",
      "name": "CE-589 Cádiz - Calzada de Tlalpan",
      "lat": 19.39859,
      "lon": -99.137732,
      "capacity": 23
    },
    {
      "id": "544",
      "name": "CE-564 Doctor Carmona y Valle - Doctor Velasco",
      "lat": 19.419509,
      "lon": -99.153227,
      "capacity": 23
    },
    {
      "id": "545",
      "name": "CE-633 Canarias - Calzada Santa Cruz",
      "lat": 19.372175,
      "lon": -99.146356,
      "capacity": 27
    },
    {
      "id": "546",
      "name": "CE-664 Hortensia - 2da cerrada de Minerva",
      "lat": 19.355544,
      "lon": -99.178992,
      "capacity": 23
    },
    {
      "id": "547",
      "name": "CE-579 Doctor Márquez - Privada Doctor Duran",
      "lat": 19.410884,
      "lon": -99.144975,
      "capacity": 27
    },
    {
      "id": "548",
      "name": "CE-652 Xicoténcatl - División del Norte",
      "lat": 19.354876,
      "lon": -99.153611,
      "capacity": 23
    },
    {
      "id": "549",
      "name": "CE-663 Hortensia - Avenida Universidad",
      "lat": 19.3548028,
      "lon": -99.1754194,
      "capacity": 23
    },
    {
      "id": "550",
      "name": "CE-603 Castilla - Eje 4 sur Xola",
      "lat": 19.394422,
      "lon": -99.143291,
      "capacity": 27
    },
    {
      "id": "551",
      "name": "CE-548 Dr. Mariano Azuela - Jose Antonio Alzate",
      "lat": 19.447028903088047,
      "lon": -99.15431119504319,
      "capacity": 39
    },
    {
      "id": "552",
      "name": "CE-463 Lago Andrómaco-Lago Zurich",
      "lat": 19.443238843979106,
      "lon": -99.20280866324902,
      "capacity": 27
    },
    {
      "id": "553",
      "name": "CE-662 Manzano - Circuito Interior",
      "lat": 19.362041,
      "lon": -99.175158,
      "capacity": 23
    },
    {
      "id": "554",
      "name": "CE-679 Olivo - Tecoyotitla",
      "lat": 19.354886,
      "lon": -99.184642,
      "capacity": 31
    },
    {
      "id": "555",
      "name": "CE-571 Manuel M. Flores - Calzada San Antonio Abad",
      "lat": 19.416221,
      "lon": -99.134909,
      "capacity": 35
    },
    {
      "id": "556",
      "name": "CE-578 Doctor Jiménez - Doctor Federico Gómez Santos",
      "lat": 19.408649,
      "lon": -99.151126,
      "capacity": 27
    },
    {
      "id": "557",
      "name": "CE-666 Moras - Naranjo",
      "lat": 19.3614885,
      "lon": -99.1774325,
      "capacity": 23
    },
    {
      "id": "558",
      "name": "CE-556 Plaza Tlaxcoaque - Diagonal 20 de noviembre",
      "lat": 19.423056,
      "lon": -99.134941,
      "capacity": 33
    },
    {
      "id": "559",
      "name": "CE-678 Francia - Tecoyotitla",
      "lat": 19.3588634,
      "lon": -99.1829297,
      "capacity": 27
    },
    {
      "id": "560",
      "name": "CE-645 Saratoga - Ajusco",
      "lat": 19.358634,
      "lon": -99.152732,
      "capacity": 27
    },
    {
      "id": "561",
      "name": "CE-569 Gutiérrez Nájera - Bolívar",
      "lat": 19.415713,
      "lon": -99.141227,
      "capacity": 19
    },
    {
      "id": "562",
      "name": "CE-686 Vito Alessio Robles - Universidad",
      "lat": 19.352203,
      "lon": -99.178393,
      "capacity": 27
    },
    {
      "id": "563",
      "name": "CE-501 Plan de Guadalupe /Ferrocarril de Cuernavaca - Eligio Ancona",
      "lat": 19.454257,
      "lon": -99.172593,
      "capacity": 27
    },
    {
      "id": "564",
      "name": "CE-697 Francisco Sosa - Tres Cruces",
      "lat": 19.349277,
      "lon": -99.164921,
      "capacity": 35
    },
    {
      "id": "565",
      "name": "CE-530  Membrillo - Cda. Nueces",
      "lat": 19.4645,
      "lon": -99.16948,
      "capacity": 27
    },
    {
      "id": "566",
      "name": "CE-584 Enrique Granados - José Peón Contreras (Eje 3)",
      "lat": 19.40697,
      "lon": -99.14383,
      "capacity": 31
    },
    {
      "id": "567",
      "name": "CE-580 Antonio Solís - Bolívar",
      "lat": 19.409817,
      "lon": -99.141643,
      "capacity": 19
    },
    {
      "id": "568",
      "name": "CE-575 Fernando Ramírez - Eje Central",
      "lat": 19.413235,
      "lon": -99.143476,
      "capacity": 29
    },
    {
      "id": "569",
      "name": "CE-590 Fernando - Isabel la Católica",
      "lat": 19.399172,
      "lon": -99.140625,
      "capacity": 31
    },
    {
      "id": "570",
      "name": "CE-650 Xicoténcatl- Prolongación Xicoténcatl",
      "lat": 19.355809,
      "lon": -99.149393,
      "capacity": 27
    },
    {
      "id": "571",
      "name": "CE-631 Miguel Laurent - Eje Central",
      "lat": 19.372907,
      "lon": -99.149207,
      "capacity": 27
    },
    {
      "id": "572",
      "name": "CE-687 Francisco Sosa - Panzacola",
      "lat": 19.349307,
      "lon": -99.179074,
      "capacity": 27
    },
    {
      "id": "573",
      "name": "CE-640 Odesa - Bulgaria",
      "lat": 19.367465,
      "lon": -99.148786,
      "capacity": 23
    },
    {
      "id": "574",
      "name": "CE-628 Tenayuca - Chichen Itzá",
      "lat": 19.378281,
      "lon": -99.15841,
      "capacity": 23
    },
    {
      "id": "575",
      "name": "CE-510 Egipto - Calle Norte 79 A",
      "lat": 19.462152,
      "lon": -99.178291,
      "capacity": 23
    },
    {
      "id": "576",
      "name": "CE-635 Calzada Santa Cruz - Antillas",
      "lat": 19.370586,
      "lon": -99.142294,
      "capacity": 39
    },
    {
      "id": "577",
      "name": "CE-655 Gomez Farias - Viena",
      "lat": 19.357086311891955,
      "lon": -99.16019652040175,
      "capacity": 19
    },
    {
      "id": "578",
      "name": "CE-531 Norte 67 - Poniente 44",
      "lat": 19.460356,
      "lon": -99.174283,
      "capacity": 35
    },
    {
      "id": "579",
      "name": "CE-684 Vito Alessio Robles - Tecoyotitla",
      "lat": 19.351594,
      "lon": -99.184772,
      "capacity": 31
    },
    {
      "id": "580",
      "name": "CE-613 Luz Saviñón - Doctor José María Vertiz",
      "lat": 19.390019,
      "lon": -99.15111,
      "capacity": 31
    },
    {
      "id": "581",
      "name": "CE-557 5 de Febrero - Fernando de Alva Ixtlilxochitl",
      "lat": 19.41981,
      "lon": -99.135941,
      "capacity": 27
    },
    {
      "id": "582",
      "name": "CE-642 Repúblicas - Monrovia",
      "lat": 19.364106,
      "lon": -99.150541,
      "capacity": 23
    },
    {
      "id": "583",
      "name": "CE-512 Clavería - Floresta",
      "lat": 19.465638,
      "lon": -99.186178,
      "capacity": 27
    },
    {
      "id": "584",
      "name": "CE-665 Moras - Mango",
      "lat": 19.3589028,
      "lon": -99.1779972,
      "capacity": 23
    },
    {
      "id": "585",
      "name": "CE-594 Xochicalco - Obrero Mundial",
      "lat": 19.4022115,
      "lon": -99.1533118,
      "capacity": 31
    },
    {
      "id": "586",
      "name": "CE-514 José F. Gutiérrez - Invierno",
      "lat": 19.470485,
      "lon": -99.188509,
      "capacity": 31
    },
    {
      "id": "587",
      "name": "CE-525 Boldo - Tila",
      "lat": 19.4683001,
      "lon": -99.165619,
      "capacity": 23
    },
    {
      "id": "588",
      "name": "CE-527 Boldo - Alcanfores",
      "lat": 19.464826,
      "lon": -99.163177,
      "capacity": 23
    },
    {
      "id": "589",
      "name": "CE-516 Texcoco - Nilo",
      "lat": 19.46669,
      "lon": -99.180302,
      "capacity": 19
    },
    {
      "id": "590",
      "name": "CE-595 Yacatas - Diagonal de San Antonio",
      "lat": 19.396983,
      "lon": -99.155114,
      "capacity": 27
    },
    {
      "id": "591",
      "name": "CE-517 Ignacio Allende - Clavería",
      "lat": 19.465377,
      "lon": -99.179197,
      "capacity": 27
    },
    {
      "id": "592",
      "name": "CE-519 Poniente 58 - Cuitláhuac",
      "lat": 19.464891,
      "lon": -99.177242,
      "capacity": 23
    },
    {
      "id": "593",
      "name": "CE-521 Yuca - Clavelinas",
      "lat": 19.466423,
      "lon": -99.173061,
      "capacity": 31
    },
    {
      "id": "594",
      "name": "CE-518 Heliópolis - Norte 79A",
      "lat": 19.468315,
      "lon": -99.177386,
      "capacity": 27
    },
    {
      "id": "595",
      "name": "CE-654 Londres - San Pedro",
      "lat": 19.355942,
      "lon": -99.157461,
      "capacity": 23
    },
    {
      "id": "596",
      "name": "CE-653 Londres - División del Norte",
      "lat": 19.356689,
      "lon": -99.153269,
      "capacity": 23
    },
    {
      "id": "597",
      "name": "CE-707 Irlanda - División del Norte",
      "lat": 19.348076,
      "lon": -99.14906,
      "capacity": 27
    },
    {
      "id": "598",
      "name": "CE-542 Dr. Enrique González Martínez - Eligio Ancona",
      "lat": 19.451838,
      "lon": -99.154584,
      "capacity": 23
    },
    {
      "id": "599",
      "name": "CE-636 Ajusco - Antillas",
      "lat": 19.367131,
      "lon": -99.142838,
      "capacity": 23
    },
    {
      "id": "600",
      "name": "CE-561 Dr. Jiménez - Dr. Lavista",
      "lat": 19.423673,
      "lon": -99.147957,
      "capacity": 27
    },
    {
      "id": "601",
      "name": "CE-585 José Toribio Medina - Manuel Navarrete",
      "lat": 19.405358,
      "lon": -99.14316,
      "capacity": 27
    },
    {
      "id": "602",
      "name": "CE-600 Cumbres de Acultzingo - Av. Universidad",
      "lat": 19.392463,
      "lon": -99.150544,
      "capacity": 31
    },
    {
      "id": "603",
      "name": "CE-599 La Morena - Zempoala",
      "lat": 19.398143,
      "lon": -99.148333,
      "capacity": 27
    },
    {
      "id": "604",
      "name": "CE-638 Av Pirineos - C. Antillas",
      "lat": 19.361743,
      "lon": -99.143867,
      "capacity": 19
    },
    {
      "id": "605",
      "name": "CE-591 Simón Bolívar - La Coruña",
      "lat": 19.402088,
      "lon": -99.142976,
      "capacity": 27
    },
    {
      "id": "606",
      "name": "CE-500 Plan de Guadalupe /Ferrocarril de Cuernavaca - Juan Sarabia",
      "lat": 19.456546,
      "lon": -99.169344,
      "capacity": 23
    },
    {
      "id": "607",
      "name": "CE-484 Laguna Mayran - Lago Cuitzeo",
      "lat": 19.44046,
      "lon": -99.174564,
      "capacity": 15
    },
    {
      "id": "608",
      "name": "CE-601 Navarra - Fernando",
      "lat": 19.395888,
      "lon": -99.145344,
      "capacity": 31
    },
    {
      "id": "609",
      "name": "CE-685 Av De la Paz - Insurgentes",
      "lat": 19.347698842866482,
      "lon": -99.18690070520825,
      "capacity": 27
    },
    {
      "id": "610",
      "name": "CE-535 Av. Jardín - Orquídea",
      "lat": 19.461773,
      "lon": -99.162241,
      "capacity": 19
    },
    {
      "id": "611",
      "name": "CE-544 Salvador Díaz Mirón - Nogal",
      "lat": 19.449773,
      "lon": -99.163136,
      "capacity": 23
    },
    {
      "id": "612",
      "name": "CE-505 Mar Negro - Mariano Escobedo",
      "lat": 19.455319,
      "lon": -99.181368,
      "capacity": 23
    },
    {
      "id": "613",
      "name": "CE-106 San Jerónimo-José María Pino Suarez",
      "lat": 19.42649,
      "lon": -99.133537,
      "capacity": 23
    },
    {
      "id": "614",
      "name": "CE-695 Malintzin - Allende",
      "lat": 19.352141,
      "lon": -99.16225,
      "capacity": 23
    },
    {
      "id": "615",
      "name": "CE-607 Unión Postal - Calzada de Tlalpan",
      "lat": 19.39091,
      "lon": -99.138953,
      "capacity": 19
    },
    {
      "id": "616",
      "name": "CE-690 Tata Vasco - Av. Miguel Ángel de Quevedo",
      "lat": 19.345966,
      "lon": -99.172975,
      "capacity": 23
    },
    {
      "id": "617",
      "name": "CE-648 Rafael Olivia - 20 de agosto",
      "lat": 19.354411,
      "lon": -99.147795,
      "capacity": 25
    },
    {
      "id": "618",
      "name": "CE-693 Xicoténcatl - Vicente Guerrero",
      "lat": 19.352531,
      "lon": -99.164913,
      "capacity": 31
    },
    {
      "id": "619",
      "name": "CE-644 Monrovia - Popocatépetl (Eje 8 Sur)",
      "lat": 19.361371,
      "lon": -99.150619,
      "capacity": 23
    },
    {
      "id": "620",
      "name": "CE-705 Europa - Miguel Ángel de Quevedo",
      "lat": 19.344107,
      "lon": -99.155933,
      "capacity": 27
    },
    {
      "id": "621",
      "name": "CE-539 Naranjo - Av. Ricardo Flores Magon",
      "lat": 19.4551042,
      "lon": -99.1576905,
      "capacity": 23
    },
    {
      "id": "622",
      "name": "CE-538 Nogal - Eligio Ancona",
      "lat": 19.453778,
      "lon": -99.163128,
      "capacity": 23
    },
    {
      "id": "623",
      "name": "CE-588  Av. Fernando - La coruña",
      "lat": 19.401175,
      "lon": -99.13748,
      "capacity": 31
    },
    {
      "id": "624",
      "name": "CE-558 Chimalpopoca - Simón Bolívar",
      "lat": 19.4223,
      "lon": -99.139872,
      "capacity": 27
    },
    {
      "id": "625",
      "name": "CE-593 Zempoala - Diagonal de San Antonio",
      "lat": 19.401018,
      "lon": -99.147952,
      "capacity": 31
    },
    {
      "id": "626",
      "name": "CE-699 San Gregorio - Felipe Carrillo Puerto",
      "lat": 19.346895,
      "lon": -99.163868,
      "capacity": 23
    },
    {
      "id": "627",
      "name": "CE-490 Lago Garda - FFCC",
      "lat": 19.449023,
      "lon": -99.179622,
      "capacity": 23
    },
    {
      "id": "628",
      "name": "CE-627 San Borja - Av. Universidad",
      "lat": 19.382606,
      "lon": -99.156592,
      "capacity": 31
    },
    {
      "id": "629",
      "name": "CE-621 Lago Poniente - Calzada de Tlalpan",
      "lat": 19.379458,
      "lon": -99.140943,
      "capacity": 26
    },
    {
      "id": "630",
      "name": "CE-605 5 de Febrero - Alfonso XIII",
      "lat": 19.395063,
      "lon": -99.139476,
      "capacity": 27
    },
    {
      "id": "631",
      "name": "CE-674 Silvestre Revueltas - Macedonio Alcalá",
      "lat": 19.361846,
      "lon": -99.186814,
      "capacity": 27
    },
    {
      "id": "632",
      "name": "CE-528 Tlatilco - Av. Jardín",
      "lat": 19.464964,
      "lon": -99.160455,
      "capacity": 27
    },
    {
      "id": "633",
      "name": "CE-598 Palenque - Cumbres de Maltrata",
      "lat": 19.3931,
      "lon": -99.152012,
      "capacity": 31
    },
    {
      "id": "634",
      "name": "CE-671 Plateros - Jose María Velasco",
      "lat": 19.364577,
      "lon": -99.186288,
      "capacity": 36
    },
    {
      "id": "635",
      "name": "CE-583 Ángel del Campo - 5 de Febrero",
      "lat": 19.408087,
      "lon": -99.137763,
      "capacity": 35
    },
    {
      "id": "636",
      "name": "CE-493 Lago Tláhuac - Laguna de Guzmán",
      "lat": 19.445916,
      "lon": -99.170401,
      "capacity": 19
    },
    {
      "id": "637",
      "name": "CE-572 Manuel J. Othón - José T. Cuellar",
      "lat": 19.414677,
      "lon": -99.136894,
      "capacity": 27
    },
    {
      "id": "638",
      "name": "CE-596 Cumbres de Maltrata - Uxmal",
      "lat": 19.395205,
      "lon": -99.155049,
      "capacity": 27
    },
    {
      "id": "639",
      "name": "CE-186 Gob. Gregorio V. Gelati-Gral. Francisco Molinos del Campo",
      "lat": 19.412438,
      "lon": -99.188493,
      "capacity": 15
    },
    {
      "id": "640",
      "name": "CE-442  Real de Mayorazgo - Avenida México - Coyoacán",
      "lat": 19.359863,
      "lon": -99.165065,
      "capacity": 23
    },
    {
      "id": "641",
      "name": "CE-570 Alfredo Chavero - Simón Bolívar",
      "lat": 19.417595,
      "lon": -99.140972,
      "capacity": 27
    },
    {
      "id": "642",
      "name": "CE-647 Antillas - Nevado",
      "lat": 19.359256,
      "lon": -99.144433,
      "capacity": 23
    },
    {
      "id": "643",
      "name": "CE-608 Ahorro Postal - Francisco Márquez",
      "lat": 19.3884304,
      "lon": -99.1397718,
      "capacity": 51
    },
    {
      "id": "644",
      "name": "CE-698 Cerrada Zamora - Av. Miguel Ángel de Quevedo",
      "lat": 19.3447824,
      "lon": -99.1635837,
      "capacity": 15
    },
    {
      "id": "645",
      "name": "CE-610  Av. Víctor Hugo - Av. Niños Héroes de Chapultepec",
      "lat": 19.387174,
      "lon": -99.143708,
      "capacity": 31
    },
    {
      "id": "646",
      "name": "CE-641 Sevilla - Av. Presidentes",
      "lat": 19.368156,
      "lon": -99.151883,
      "capacity": 23
    },
    {
      "id": "647",
      "name": "CE-534 Tlatilco - Jazmín",
      "lat": 19.4587727,
      "lon": -99.1644993,
      "capacity": 27
    },
    {
      "id": "648",
      "name": "CE-574 José María Roa Bárcenas - Simón Bolívar",
      "lat": 19.411768,
      "lon": -99.140899,
      "capacity": 15
    },
    {
      "id": "649",
      "name": "CE-616 Petén - Eje 5 Sur",
      "lat": 19.384965,
      "lon": -99.1535881,
      "capacity": 23
    },
    {
      "id": "650",
      "name": "CE-646  Rumania - Av. Popocatépetl",
      "lat": 19.360545,
      "lon": -99.147501,
      "capacity": 27
    },